Station ID	Station.Code	Station name	Station ID	Station Code	longitude	latitude	Catch_area_km2	runoff_mm/yr	Depth (m)	Lake_area_km2	Forest_Area %	Cultivated_Area %	Peat_Area %	Glacier_Area %	Water_ex_lake_Area %	Heath_Area %	Lake_Area %	Res_time_years
9	101-2-7	Hokksj?en	9	101-2-7	11.5599	59.0051	5.5	653	1.7	0.12	87.1	0	7.7	0	2.9	2.3	2.2	0.5
10	221-1-2	Langtjern	10	221-1-2	11.8506	59.8099	0.43	532	2.42	0.05	58.8	0	35.3	0	0	5.9	11.7	0.53
11	402-2-13	S?ertjern	11	402-2-13	12.4437	60.0578	1.57	501	1.9	0.13	80.5	0	10.7	0	2.4	6.4	8.3	0.5
12	419-1-25	Mj?gsj?en	12	419-1-25	11.8453	60.332	1.02	488	3.81	0.06	73.8	0	15.2	0	1.5	9.5	5.9	0.5
13	425-2-2	Kottern	13	425-2-2	12.512	60.5873	2.13	503	1.33	0.16	86.5	0	5.5	0	0	8	7.5	0.5
14	432-1-26	M?abutj?rna	14	432-1-26	11.186	61.8206	0.4	583	2.61	0.06	90.2	0	0	0	0	9.8	15	0.67
15	436-1-7	HOH 1066	15	436-1-7	11.1377	62.235	0.2	559	0.25	0.04	0	0	3	0	0	97	20.4	0.5
16	438-1-13	Brennvoltj?rna	16	438-1-13	10.7806	61.9828	0.65	495	1.55	0.06	43.6	0	14.5	0	4.1	37.8	9.2	0.5
17	512-1-26	HOH 1374	17	512-1-26	9.0778	62.3262	0.36	1075	1.55	0.04	0	0	0	0	0.8	99.2	11.1	0.5
18	512-2-7	Kjelsungvatnet	18	512-2-7	9.1489	62.2355	18.45	850	3.4	0.11	0	0	0	0.1	2.1	97.8	0.6	0.5
19	513-2-18	Nedre S?vertj?rni	19	513-2-18	7.6993	61.8604	15.6	1229	13.11	0.65	0	0	0	16	4.7	79.3	4.2	0.5
20	513-3-14	Liavatnet	20	513-3-14	7.7655	61.8636	210.74	1005	20.14	2.61	5.6	0	0.2	9.9	3	81.3	1.2	0.5
21	514-2-16	Skuggevatnet	21	514-2-16	7.9947	61.5926	3.33	1498	9.38	0.24	0	0	0	0	2.9	97.1	7.2	0.5
22	538-1-33	H?gkampvatnet	22	538-1-33	9.8146	61.0665	0.31	944	5.34	0.1	0	0	0	0	0	100	32.3	1.82
23	540-3-13	Nevlingen	23	540-3-13	9.4808	60.5296	171.5	677	14.53	1.5	82.5	0	1	0	7.6	8.9	0.9	0.5
24	545-1-15	HOH 1398	24	545-1-15	8.4646	61.1986	0.6	943	4.1	0.07	0	0	0	0	0	100	11.7	0.51
25	604-1-7	Korstjernet	25	604-1-7	9.6336	59.524	0.34	1132	3.09	0.05	0	0	0	0	3.1	96.9	14.5	0.5
26	604-3-3	Hengsvatnet	26	604-3-3	9.4422	59.654	21.53	592	11.93	1.01	83	0	0.5	0	3.8	12.7	4.7	0.95
27	631-2-7	Mjovatnet	27	631-2-7	9.3365	59.8361	12.1	982	7.32	0.13	19	0	33.3	0	6.2	41.5	1.1	0.5
28	807-1-71	Surtetj?rn	28	807-1-71	9.1288	59.7705	3.86	686	6.85	0.09	63.5	0	0.3	0	1.2	35	2.3	0.5
29	817-1-10	Vihusvatnet	29	817-1-10	8.886	59.0772	0.29	890	1.98	0.05	71.4	0	14.3	0	0	14.3	17.5	0.5
30	829-1-13	Mj?atn	30	829-1-13	8.2628	59.309	0.96	844	4.77	0.08	25.3	0	0	0	0	74.7	8.4	0.5
31	830-1-24	Store Kleivtj?rn	31	830-1-24	8.6527	59.0243	0.87	811	4.58	0.07	75.7	0	7.1	0	7.1	10.1	8.1	0.5
32	833-2-21	Folurdkaldevatn	32	833-2-21	7.6002	59.3865	2.46	1354	8.5	0.17	0	0	0.4	0	4	95.6	6.9	0.5
33	834-1-12	Hemletj?rnane	33	834-1-12	7.5451	59.6097	21.43	1188	3.16	0.07	0	0	0.2	0	16	83.8	0.3	0.5
34	834-1-32	HOH 1394	34	834-1-32	7.9606	59.9359	0.57	1303	3.44	0.06	0	0	0	0	1.8	98.2	10.6	0.5
35	928-1-7	Lundevatnet	35	928-1-7	8.2175	58.4626	3.56	1226	1.91	0.07	88.3	0	6.9	0	2.4	2.4	2	0.5
36	928-2-20	Lille Hovvatn	36	928-2-20	8.0309	58.606	1.07	1374	3.96	0.22	76.3	0	0	0	0	23.7	20.6	0.59
37	935-1-19	F?etj?rn	37	935-1-19	7.9649	58.4256	4.11	1178	2.68	0.06	90	0	5.6	0	2.8	1.6	1.5	0.5
38	937-1-21	?ytj?rn	38	937-1-21	7.6886	58.6673	1.16	1246	2.85	0.09	38.5	0	15.4	0	6.2	39.9	7.8	0.5
39	938-3-4	Storolavsvatnet	39	938-3-4	7.2834	58.8583	6.53	1725	16.31	1.15	0	0	0	0	12.2	87.8	17.6	1.67
40	940-2-9	HOH 1227	40	940-2-9	7.0988	59.1849	4.66	2562	6.62	0.2	0	0	0	0	4	96	4.3	0.5
41	941-2-23	Reinsgrovtj?rnane	41	941-2-23	7.0003	59.3403	2.55	2186	5.99	0.19	0	0	0	0	4	96	7.4	0.5
42	1003-2-4	Saudlandsvatn	42	1003-2-4	6.7675	58.2008	4.62	1705	9.57	0.16	44.8	2.2	0	0	4.4	48.6	3.5	0.5
43	1004-1-34	HOH 230	43	1004-1-34	6.5791	58.3105	0.71	2263	8.15	0.04	11.5	0	0	0	0	88.5	5.7	0.5
44	1014-1-32	Krossvatnet	44	1014-1-32	7.7865	58.2447	0.63	1351	4.99	0.06	83.8	0	3.1	0	4.6	8.5	9.5	0.5
45	1032-1-19	Svartevatnet	45	1032-1-19	7.0841	58.2765	4.22	1907	9.55	0.1	14.6	0	6.1	0	4.9	74.4	2.4	0.5
46	1037-1-1	Lisle Fr?ysvatnet	46	1037-1-1	7.1065	58.3022	0.42	2040	5.53	0.1	74.4	0	0	0	0	25.6	23.6	0.64
47	1046-1-23	Bergetj?rni	47	1046-1-23	6.8994	59.0158	0.43	1700	8.03	0.05	88.9	0	0	0	0	11.1	11.5	0.54
48	1111-1-14	Eikelitj?rna	48	1111-1-14	6.3932	58.3877	0.59	2089	14.29	0.08	40	0	2	0	0	58	13.6	0.93
49	1114-1-20	Skjelbreidtj?rni	49	1114-1-20	6.1841	58.7231	1.09	2365	7.13	0.05	83	4	3	0	0	10	4.6	0.5
50	1114-1-34	Lomstj?rni	50	1114-1-34	6.0846	58.6739	3.01	1833	5.93	0.07	10.7	0	0.7	0	2.1	86.5	2.3	0.5
51	1122-1-9	Kr?j?rni	51	1122-1-9	6.1126	58.74	1.73	2270	4.7	0.06	3.4	0	1.4	0	0.7	94.5	3.5	0.5
52	1129-1-13	Tvaravatnet	52	1129-1-13	6.3111	59.0394	0.27	2609	8.83	0.05	0	0	0	0	0	100	18.7	0.63
53	1201-1-23	HOH 60	53	1201-1-23	5.2635	60.3273	0.27	2094	4.47	0.06	37	0	3.7	0	0	59.3	22.5	0.5
54	1201-1-32	Brekkevatnet	54	1201-1-32	5.5915	60.3455	0.23	3712	5.62	0.04	12	0	0	0	0	88	17.1	0.5
55	1228-1-16	1230 HOH	55	1228-1-16	7.0211	59.7764	0.89	2804	6.38	0.08	0	0	0	0	2.9	97.1	9	0.5
56	1228-2-4	Juklevatni	56	1228-2-4	7.0169	60.0617	3.18	2255	8.74	0.36	0	0	0	1	1.4	97.6	11.3	0.5
57	1231-1-41	HOH 1092	57	1231-1-41	6.4912	60.2941	3.36	2949	15.68	0.09	0	0	0	2.6	3.9	93.5	2.7	0.5
58	1235-1-6	Rundatj?rni	58	1235-1-6	6.3022	60.5711	0.36	2522	3.28	0.06	0	0	0	0	0	100	16.6	0.5
59	1235-1-17	Rennebergstj?rni	59	1235-1-17	6.225	60.7647	0.18	3575	8.21	0.04	0	0	0	0	0	100	22.8	0.52
60	1263-3-10	Husdalsvatnet	60	1263-3-10	5.4946	60.6355	8.54	2835	26.81	1.02	43.8	0	0.2	0	0.9	55.1	11.9	1.13
61	1266-1-25	Stemmevatnet	61	1266-1-25	5.3252	60.8619	0.16	3199	10.07	0.04	36.4	0	0	0	0	63.6	24.3	0.76
62	1266-1-43	HOH 816	62	1266-1-43	5.8128	60.9299	3.78	4253	7.23	0.07	0	0	0	0	14.7	85.3	1.9	0.5
63	1401-1-35	Rundedalsvatnet	63	1401-1-35	5.2019	61.6631	0.65	3639	4.7	0.04	0	0	0	0	2.7	97.3	6.1	0.5
64	1411-2-17	Holmevatnet	64	1411-2-17	5.3974	60.9714	0.5	3966	4.76	0.11	0	0	5.8	0	0	94.2	22.2	0.5
65	1411-2-34	Botnavatnet	65	1411-2-34	5.395	60.986	1.54	3834	10.27	0.14	0.7	0	1.4	0	1.4	96.5	9.1	0.5
66	1416-1-5	HOH 1110	66	1416-1-5	5.9641	61.0224	0.33	3357	7.31	0.04	0	0	0	0	3.1	96.9	12	0.5
67	1416-2-6	Bl?jellvatnet	67	1416-2-6	5.7658	61.0234	1.37	2958	16.07	0.35	0	0	0	0	1.5	98.5	25.6	1.39
68	1421-1-34	HOH 1530	68	1421-1-34	7.6396	60.8545	0.83	1596	4.41	0.06	0	0	0	0	0	100	7.2	0.5
69	1426-2-29	Krongeltj?rni	69	1426-2-29	7.9304	61.5686	0.47	1678	2.84	0.13	0	0	0	0	6.7	93.3	27.4	0.5
70	1429-3-22	Langesj?en	70	1429-3-22	5.1643	61.2797	8.34	2621	13.91	1.18	77	0	0.8	0	0.8	21.4	14.2	0.75
71	1432-2-20	Steinbotsvatna	71	1432-2-20	6.4055	61.3537	14.92	2958	11.66	0.28	0	0	0	2.2	2.2	95.6	1.9	0.5
72	1433-1-30	Einevollsvatnet	72	1433-1-30	5.5819	61.4797	2.72	2861	8.12	0.05	31.6	0	2.1	0	0	66.3	1.8	0.5
73	1438-1-16	HOH 770	73	1438-1-16	5.3046	61.6852	0.46	4511	10.15	0.06	0	0	0	0	0	100	13	0.5
74	1534-2-5	St. Hestevatn	74	1534-2-5	6.4018	62.5932	3.54	2277	13.72	0.52	8.3	0	8.3	0	0	83.4	14.7	0.88
75	1539-3-3	Ulv?alsvatnet	75	1539-3-3	7.9124	62.2454	101.74	953	5.54	2.18	4.6	0	0.4	2.9	1.8	90.3	2.1	0.5
76	1543-2-8	R?ndalskarvatn	76	1543-2-8	8.0792	62.6104	6.99	1832	10.97	0.19	0	0	0	15.5	1.7	82.8	2.7	0.5
77	1566-2-3	Kvernvatnet	77	1566-2-3	9.2772	62.8863	6.04	1486	6.39	0.28	0	0	0	0	3.2	96.8	4.6	0.5
78	1566-2-19	HOH 1078	78	1566-2-19	8.991	62.7477	2.08	1872	17.23	0.31	0	0	0	21.7	0	78.3	14.9	1.37
79	1622-1-5	Nedre Hanstj?rna	79	1622-1-5	9.7034	63.4465	2.65	1428	4.5	0.07	58.5	0	7.4	0	1.9	32.2	2.6	0.5
80	1622-2-4	Austvatnet	80	1622-2-4	9.7462	63.4122	13.94	1393	11.07	0.8	44.8	0	3.4	0	1.4	50.4	5.7	0.5
81	1640-2-18	Skebrosj?ane	81	1640-2-18	12.1626	62.4051	4.32	446	2.56	0.19	25.1	0	0	0	0	74.9	4.4	0.5
82	1718-1-3	Hyttvatnet	82	1718-1-3	10.5286	63.7478	0.26	1629	3.02	0.05	0	0	6.7	0	0	93.3	19.4	0.5
83	1736-3-4	Snaufjellvatnet	83	1736-3-4	13.1541	64.1917	6.55	1403	4.62	1.25	0	0	0	0	4.7	95.3	19.1	0.63
84	1738-3-9	Midtre Bl?jellvatnet	84	1738-3-9	13.54	64.1155	50.57	1083	5.89	1.13	0	0	2.2	0	4.1	93.7	2.2	0.5
85	1751-2-11	Gr?nlivatnet	85	1751-2-11	11.9993	64.8719	3.54	2223	11.9	0.41	16.7	0	1.9	0	2.8	78.6	11.6	0.62
86	1851-2-13	Trollvatnet	86	1851-2-13	15.608	68.3657	0.76	2150	15.65	0.22	48.1	0	0	0	0	51.9	28.8	2.1
87	09.02.1929	Storvatnet	87	09.02.1929	17.1666	69.4079	3.7	1873	10.92	0.19	22	0	0.2	0	2.9	74.9	5.1	0.5
88	13.02.1929	Daudmannsvatn	88	13.02.1929	17.4059	69.331	5.29	2018	14.37	0.66	0	0	0.2	0	2.2	97.6	12.5	0.89
89	13.01.2011	HOH 510	89	13.01.2011	23.7033	68.8681	0.43	449	0.73	0.07	0	0	1.5	0	6.2	92.3	16.3	0.5
90	29.01.2011	HOH 407	90	29.01.2011	24.4007	68.8773	0.28	343	1.21	0.08	0	0	1.8	0	1.8	96.4	28.2	0.99
91	2011-1-60	HOH 414	91	2011-1-60	23.4544	69.0464	0.3	363	1.25	0.05	60	0	12	0	0	28	16.8	0.58
92	2011-2-34	Guolehisjavri	92	2011-2-34	22.2687	68.9111	1.98	386	1.52	0.36	50.8	0	12	0	0	37.2	18.1	0.72
93	2020-2-30	HOH 515	93	2020-2-30	25.3901	70.1664	1.37	724	3.89	0.1	0	0	0.6	0	1.1	98.3	7.3	0.5
94	2022-1-42	HOH 292	94	2022-1-42	27.4221	70.7343	1.53	1029	3.43	0.08	0	0	0	0	3.7	96.3	5.2	0.5
95	2022-1-45	HOH 561	95	2022-1-45	26.7269	70.1634	0.76	814	2.66	0.04	0	0	0	0	5.3	94.7	5.3	0.5
97	2023-1-63	HOH 323	97	2023-1-63	28.0818	70.8379	1.29	763	3.45	0.04	0	0	0	0	3.3	96.7	3.1	0.5
98	2025-1-57	HOH 450	98	2025-1-57	28.7918	70.5425	3.22	872	4.91	0.05	0	0	0	0	0.7	99.3	1.6	0.5
115	831-501	Br?vatn	115	831-501	7.726	59.2929	4.03	1165	25.83	1.25	38	0	0	0	3.25	58.75	31	6.88
116	1640-603	Tufsingen	116	1640-603	11.8759	62.6107	4.87	479	12.66	1.38	38.83	0	0	0	0	61.17	28.4	7.5
135	1228-501	Steinavatn	135	1228-501	6.58	59.8545	4.25	3284	15.06	0.85	0	0	0	0	1.16	98.84	20	0.92
137	620-502	Storekr?kja	137	620-502	7.7857	60.4372	50.52	984	8.73	4	0	0	0	0	11.96	88.04	7.9	0.7
166	1018-4	Kleivsetvatn	166	1018-4	7.6772	58.1092	17.83	1446	12.12	0.57	93.88	0	0.61	0	3.03	2.48	3.2	0.5
171	1840-601	Kjem?atn	171	1840-601	15.4094	66.7683	36.47	861	11.53	2.6	6.36	0	0.91	0.61	0	92.12	7.1	0.95
187	429-601	Holmsj?en	187	429-601	11.6214	61.149	4.96	625	4.47	1.15	77.12	0	3.39	0	0	19.49	23.2	1.66
193	1725-3-14	Bj?rfarvatnet	193	1725-3-14	10.9849	64.2762	3.63	1586	14.48	1.01	5.26	0	10.53	0	0	84.21	27.8	2.54
2998	101-2-2	Steinsvatnet	2998	101-2-2	11.6527	59.1001	4.33	617	3.46	0.21	86.7	0	2.2	0	6.5	4.6	4.8	0.5
2999	101-4-1	Femsj?en	2999	101-4-1	11.4447	59.1271	1573.37	395	18.14	10.64	68.3	10.5	8.2	0	12.1	0.9	0.7	0.5
3000	105-3-6	Isesj?en	3000	105-3-6	11.2383	59.2988	139.96	511	14.59	6.2	84.9	0	2.2	0	2.6	10.3	4.4	1.26
3001	105-3-10	Tunevatnet	3001	105-3-10	11.0959	59.3188	6.55	543	14.6	2.25	29.7	0	0	0	0	70.3	34.4	9.24
3002	118-1-7	HOH113	3002	118-1-7	11.6898	59.2442	0.73	344	1.82	0.05	42.3	0	8.4	0	0	49.3	6.8	0.5
3003	118-1-39	Ekertjernet	3003	118-1-39	11.7423	59.3056	1.1	528	4.02	0.07	91.6	0	0	0	1.1	7.3	6.3	0.5
3004	119-1-2	H?levatnet	3004	119-1-2	11.6604	59.6088	0.48	491	3.79	0.07	88.9	0	0	0	0	11.1	14.6	1.13
3005	119-2-81	Nordre Torgrimsbutjern	3005	119-2-81	11.7699	59.3514	1.87	533	2.24	0.07	91.7	0	3	0	0	5.3	3.7	0.5
3006	119-4-3	R?denessj?en	3006	119-4-3	11.651	59.4832	1007.61	639	18.65	16.42	72.8	11.4	1	0	12.9	1.9	1.6	0.5
3007	128-1-4	Stomperudtjernet	3007	128-1-4	11.4043	59.3214	3.66	314	2.43	0.05	37.9	0	1.7	0	1.3	59.1	1.4	0.5
3009	137-3-1	S?yvatnet	3009	137-3-1	10.9736	59.4291	93.75	606	7.7	1.55	92	0	0.6	0	0.2	7.2	1.7	0.5
3010	217-3-1	Gjersj?en	3010	217-3-1	10.7769	59.8083	80.67	508	23.15	2.42	69.4	15	2.5	0	2.8	10.3	3	1.37
3011	220-2-9	Bondivatnet	3011	220-2-9	10.4373	59.8174	35.18	695	5.34	0.13	80.8	8.8	0.7	0	0.5	9.2	0.4	0.5
3012	221-1-6	Lombergtjern	3012	221-1-6	11.6183	59.7369	1.65	470	2.93	0.04	91.4	0	2.3	0	3.1	3.2	2.4	0.5
3013	221-1-9	Lembruvatna	3013	221-1-9	11.8406	59.8419	7.53	526	2.83	0.09	91.4	0	5.1	0	1.3	2.2	1.2	0.5
3014	221-3-2	Floen	3014	221-3-2	11.5085	59.9824	41.83	504	9.83	2.04	90.2	0	3.1	0	4.5	2.2	4.9	0.95
3015	227-2-1	Heia	3015	227-2-1	11.2137	59.9275	17.32	500	5.94	0.53	87.7	0	4.2	0	2.5	5.6	3.1	0.5
3016	231-2-5	Tretjernet	3016	231-2-5	11.1305	59.9879	0.61	538	5.25	0.1	87	0	4.6	0	8.4	0	16.3	1.59
3017	235-1-3	Sesvolltjernet	3017	235-1-3	11.1652	60.2496	2.06	474	0.5	0.05	67.3	9.6	19.2	0	4	-0.1	2.4	0.5
3018	236-1-12	Djuptjern	3018	236-1-12	11.5426	60.0226	0.57	518	2.97	0.05	90.8	0	1.5	0	7.7	0	8.8	0.51
3019	236-2-4	Flasj?en	3019	236-2-4	11.7623	60.0949	19.87	544	2.92	0.51	91.2	0	3.2	0	2.7	2.9	2.6	0.5
3020	239-1-186	Bur?tjern	3020	239-1-186	11.0333	60.4292	4.49	615	2.12	0.09	88.5	8.3	1.3	0	1.9	0	2	0.5
3021	239-2-3	Bundlitjernet	3021	239-2-3	11.1086	60.4292	0.73	614	3.16	0.11	67.3	0	24	0	8.7	0	15.2	0.78
3022	239-2-10	Holtjernet	3022	239-2-10	11.0963	60.4714	1.65	603	6.06	0.1	86.8	0	0	0	4.9	8.3	6.1	0.61
3023	239-4-3	Hurdalsj?en	3023	239-4-3	11.1607	60.2977	587.84	396	28.46	32.31	75.9	2.9	13.9	0	5.6	1.7	5.5	3.95
3024	301-1-1	Steinsrudtjern	3024	301-1-1	10.8679	59.8217	1.4	463	4.37	0.06	61.6	13.7	20.5	0	4.1	0.1	4.3	0.5
3025	301-2-1	Rottungen	3025	301-2-1	10.7206	60.0488	4.11	1016	6.54	0.42	85.5	0	1.7	0	11.9	0.9	10.2	0.66
3026	301-3-1	Helgeren	3026	301-3-1	10.7092	60.0726	14.91	972	11.57	1.81	81	0	1.8	0	13.9	3.3	12.1	1.44
3027	402-1-28	Eintjern	3027	402-1-28	12.3661	60.0724	3.07	461	1.43	0.61	93.5	0	3.9	0	0	2.6	19.9	0.62
3028	402-2-7	Kjerketjerna	3028	402-2-7	12.4163	60.2571	5.51	444	2.48	0.18	90.5	0	4.3	0	2.2	3	3.3	0.5
3030	402-3-9	N H?sj?en	3030	402-3-9	12.3685	60.1111	8.19	438	7.57	1.13	64	13.3	20	0	2.7	0	13.8	2.38
3031	403-3-15	Brumundsj?en	3031	403-3-15	11.1019	61.0266	11.5	643	2.75	1.68	32	0	52.5	0	0.5	15	14.6	0.62
3032	412-1-20	Kinnlitjernet	3032	412-1-20	10.8114	60.8866	1.06	491	3.26	0.06	47.2	47.2	0	0	0	5.6	5.6	0.5
3033	412-1-22	?rtjernet	3033	412-1-22	11.1143	61.0129	0.75	673	0.4	0.06	6.7	0	84.2	0	0	9.1	8	0.5
3034	412-3-4	Sjusj?en	3034	412-3-4	10.7129	61.1428	64.16	882	8.01	1.2	9	1	46.5	0	10.9	32.6	1.9	0.5
3035	412-5-1	Mj?sa	3035	412-5-1	11.2363	60.3977	16529.8	550	149.9	365.19	35.9	6	5.4	2	3.1	47.6	2.2	6.02
3036	418-1-4	Vesle Otten	3036	418-1-4	11.3661	60.4546	5.74	532	3.12	0.07	92.1	0	3.4	0	0	4.5	1.2	0.5
3037	418-1-14	Geittjerna	3037	418-1-14	11.57	60.4688	6.12	550	2.44	0.05	90.2	0	8.5	0	0.5	0.8	0.8	0.5
3038	418-2-3	Tennungen	3038	418-2-3	11.437	60.3519	8.5	499	8.81	0.28	81.5	0	18.5	0	0	0	3.3	0.58
3039	419-1-6	HOH 176	3039	419-1-6	11.8072	60.2566	1.07	346	3.08	0.06	92	0	2	0	0	6	5.6	0.5
3040	419-1-23	Svarttjernet	3040	419-1-23	11.7048	60.2965	0.52	372	7.72	0.07	91.4	0	0	0	0	8.6	13.4	2.78
3041	419-2-8	Igletjernet	3041	419-2-8	11.7055	60.2762	1.82	352	5.11	0.13	92.9	0	0	0	0	7.1	7.2	1.04
3043	423-1-21	Langtjernet	3043	423-1-21	12.4121	60.4575	1.89	465	0.34	0.05	90.6	0	5.1	0	0	4.3	2.6	0.5
3044	423-3-14	Rotnesj?en	3044	423-3-14	12.3516	60.4773	87.82	435	8.26	1.07	94.3	0.3	2.9	0	1.3	1.2	1.2	0.5
3045	425-1-15	Kalbr??j?en	3045	425-1-15	12.3332	60.5485	19.39	420	6.56	0.07	92	0	3.3	0	4.3	0.4	0.4	0.5
3046	425-2-10	Steinsj?en	3046	425-2-10	12.2597	60.8218	13.84	484	1.79	0.16	95.7	0	3.1	0	0.1	1.1	1.2	0.5
3047	425-2-25	Knapptjernet	3047	425-2-25	12.1265	60.5833	9.21	309	2.56	0.19	94.9	0	3	0	0	2.1	2.1	0.5
3048	425-3-16	N?klevatn	17809	418-601	11.7873	60.4788	16.55	613		1.07	65.1	0	19.6	0	9.7	5.6	6.5	0.5
3049	426-3-1	V?mangen	3049	426-3-1	11.7902	60.5878	57.57	564	4.43	1.5	88.1	0	5.4	0	3.8	2.7	2.6	0.5
3050	427-3-12	Svenkebekksj?en	3050	427-3-12	11.9706	60.8539	103.26	497	3.04	1.17	93.5	1.5	3.8	0	0.1	1.1	1.1	0.5
3051	428-2-15	Mj?lsj?en	3051	428-2-15	12.1964	61.5681	7.46	867	3.52	0.35	14.3	0	9.3	0	0.1	76.3	4.7	0.5
3053	430-2-1	Setningsj?en	3053	430-2-1	10.2732	61.7551	146.56	518	14.44	0.72	20.2	0.3	0.9	0	0.5	78.1	0.5	0.5
3054	430-2-16	Gr?j?rna	3054	430-2-16	10.5755	61.8559	0.46	479	2.19	0.1	20.1	0	1.8	0	0	78.1	22	1
3055	432-1-2	Langtj?rna	3055	432-1-2	11.2815	61.5383	0.83	457	7.48	0.08	89.8	0	4.2	0	0	6	9.7	1.58
3056	432-1-10	Byringtj?rna	3056	432-1-10	11.4439	61.4838	1.53	564	1.36	0.04	2.9	0	0	0	0	97.1	2.6	0.5
3057	432-1-18	Stortj?rna	3057	432-1-18	11.2553	61.5993	1.39	425	5.53	0.09	48.2	0	15.8	0	0	36	6.5	0.84
3058	432-2-23	Hundtj?rna	3058	432-2-23	10.9583	61.824	1.58	449	3.89	0.11	58.7	0	29	0	0	12.3	7	0.6
3060	432-4-1	S?lensj?en	3060	432-4-1	11.6802	61.8776	387.64	547	10.65	21.66	48	0	5.4	0	0.3	46.3	5.6	1.09
3061	432-4-2	Storsj?en	3061	432-4-2	11.3642	61.3921	2292.64	558	147.08	47.55	43.2	1	3.2	0	2.6	50	2.1	5.47
3062	434-1-11	Abbortj?rna	3062	434-1-11	12.1431	62.3059	1.88	322	3.1	0.05	28.7	0	1.6	0	0.8	68.9	2.7	0.5
3063	434-2-4	Store Sorksj?en	3063	434-2-4	11.9997	61.9734	33.05	427	3.41	0.5	73	0	13.7	0	3.4	9.9	1.5	0.5
3064	434-2-21	Skjervagen	3064	434-2-21	12.1929	61.9161	11.44	451	2.37	0.71	89.2	0	3.3	0	1.1	6.4	6.2	0.5
3065	434-3-23	Fjellgutusj?en	3065	434-3-23	12.0951	62.0645	36.49	543	8.48	2.09	41.7	0	4.2	0	4.2	49.9	5.7	0.89
3067	436-1-3	Rabbtj?rna	3067	436-1-3	11.2743	62.3478	1.83	487	0.95	0.05	64.9	0	32.4	0	0	2.7	2.7	0.5
3068	437-1-9	Halvorstj?rna	3068	437-1-9	10.2083	62.5311	0.55	450	2.04	0.07	44.9	0	34.6	0	3.8	16.7	12.7	0.58
3069	438-2-19	S?re Klettsj?en	3069	438-2-19	10.2307	61.9962	3.73	539	3.66	0.19	15.9	0	6	0	0	78.1	5.1	0.5
3070	441-1-12	Storflotj?rna	3070	441-1-12	11.034	62.5315	2.28	447	0.34	0.04	84.2	1	9.8	0	0.5	4.5	1.8	0.5
3071	501-3-9	Mellsj?en	3071	501-3-9	10.7083	61.2019	31.81	859	5.09	1.23	7.6	0.6	28.9	0	4.1	58.8	3.9	0.5
3072	511-3-15	V??j?en	3072	511-3-15	9.424	62.1753	125.99	395	10.72	1.14	9.6	0.1	4.5	0	0.9	84.9	0.9	0.5
3073	512-1-8	Nedre M?lmsvatnet	3073	512-1-8	8.3726	62.2824	8.99	1024	3.36	0.1	0	0	0	0.7	1.1	98.2	1.1	0.5
3074	512-1-14	Lomtj?rni	3074	512-1-14	8.696	62.2751	1	686	0.96	0.06	12.5	0	2.5	0	3	82	6	0.5
3075	512-1-18	HOH 1506	3075	512-1-18	9.098	62.3532	0.89	849	6.79	0.06	0	0	0	0	6.3	93.7	6.8	0.54
3076	512-2-23	Ryggh?tj?rni	3076	512-2-23	8.568	62.0418	10.22	780	2.6	0.22	0	0	0.1	0	2	97.9	2.2	0.5
3077	512-3-12	Langvatnet	3077	512-3-12	9.1377	62.3103	11.86	896	14.79	1.29	0	0	0	0.4	11.1	88.5	10.9	1.8
3078	513-1-7	HOH 1370	3078	513-1-7	7.4477	62.0393	1.74	1317	2.99	0.07	0	0	0	19.4	3.1	77.5	4	0.5
3079	513-2-5	Gr?ntj?rni	3079	513-2-5	7.801	61.7526	4.14	1645	13.86	0.55	0	0	0	40.5	14.9	44.6	13.3	1.12
3080	513-2-15	Kroketj?rni	3080	513-2-15	8.1218	61.9667	1.39	745	6.64	0.15	0	0	0	0	11.5	88.5	10.8	0.96
3081	513-2-27	Styggvatnet	3081	513-2-27	7.7169	61.7583	9.04	1608	10.72	0.17	0	0	0	50	2.1	47.9	1.9	0.5
3082	514-1-1	Urdadalstj?rnin	3082	514-1-1	8.3998	61.5451	3.34	1224	8.2	0.08	0	0	0	0	3.5	96.5	2.4	0.5
3083	514-1-10	Sjugurdtindtj?rni	3083	514-1-10	8.5719	61.4848	0.17	1283	4.68	0.05	0	0	0	0	8.3	91.7	29.8	1.09
3084	514-1-29	Brangsdalstj?rnin	3084	514-1-29	8.0915	61.6258	1.9	1092	2.25	0.05	0	0	0	16.6	3.3	80.1	2.6	0.5
3085	514-2-26	Panna	3085	514-2-26	8.298	61.5483	5.07	1291	2.93	0.12	0	0	0	0	2.2	97.8	2.4	0.5
3086	515-1-23	Skytningen	3086	515-1-23	9.0285	61.8137	0.99	446	3	0.04	28.6	0	1.4	0	5.7	64.3	4.1	0.5
3087	515-2-1	Tj?rnosen	3087	515-2-1	9.0089	61.5938	6.87	752	2.87	0.13	0	0	1.2	0	1.9	96.9	1.9	0.5
3088	515-2-24	Birisj?en	3088	515-2-24	8.9641	61.5709	9.72	607	4.27	0.42	30.3	0	4.3	0	4.6	60.8	4.3	0.5
3089	516-2-8	Nedre Sikkilsdalsvatnet	3089	516-2-8	9.0317	61.4824	23.29	751	3.76	0.46	30.4	0	0.9	0	2	66.7	2	0.5
3090	516-3-36	Store ?revatnet	3090	516-3-36	9.158	61.5014	66.14	548	8.94	1.99	29.6	0	1.1	0	3.2	66.1	3	0.5
3091	517-1-16	HOH 1506	3091	517-1-16	9.6984	61.9074	0.92	757	8.71	0.09	0	0	0	0	8	92	9.8	1.12
3092	519-1-6	Sprentj?rna	3092	519-1-6	9.5504	61.4477	1.96	655	2.37	0.07	0	0	0.5	0	3.5	96	3.6	0.5
3093	519-2-12	Nordre Vulutj?rni	3093	519-2-12	10.017	61.8238	6.39	787	12.4	0.18	0	0	1.8	0	2.7	95.5	2.8	0.5
3094	519-2-29	Vesle Jetningen	3094	519-2-29	9.8166	61.4759	13.35	429	2.4	0.26	67.8	0	19.8	0	2.1	10.3	1.9	0.5
3095	520-1-11	Urdtjern	3095	520-1-11	10.0931	61.6683	3.47	517	1.81	0.06	0	2.1	4.7	0	2	91.2	1.7	0.5
3096	520-1-31	Steinslatj?rnet	3096	520-1-31	10.6039	61.4634	1.11	790	1.08	0.04	0	0	5.4	0	2.2	92.4	3.6	0.5
3097	521-2-14	Tromstj?rn	3097	521-2-14	10.5066	61.4068	5.13	533	4.17	0.19	54.3	0.8	14.5	0	1.9	28.5	3.7	0.5
3098	521-3-5	Lyngen	3098	521-3-5	10.7657	61.3734	9.2	741	2.06	1.29	1.3	0	40.9	0	19.6	38.2	14	0.5
3099	522-1-13	Skruvdalstjernet	3099	522-1-13	9.5411	61.2122	3.19	494	1.12	0.05	69	0	12.1	0	1.7	17.2	1.6	0.5
3100	522-3-4	?vre Reinsj?en	3100	522-3-4	9.5794	61.2016	12.71	488	5.06	1.13	48.1	0	3.9	0	8.8	39.2	8.9	0.92
3101	522-3-16	Espedalsvatnet	3101	522-3-16	9.494	61.4386	94.49	434	11.26	4.33	42.9	0	0.6	0	6	50.5	4.6	1.19
3102	528-1-22	Fj?utjern	3102	528-1-22	11.0605	60.5986	1.45	650	2.6	0.05	63.2	0	31.6	0	2.3	2.9	3.4	0.5
3103	528-2-6	M?rksj?en	3103	528-2-6	11.0248	60.5204	11.94	693	5.55	0.14	83.2	0	7.8	0	1	8	1.2	0.5
3104	529-3-35	Skjelbreia	17854	529-601	10.5792	60.6229	25.49	575		2.67	67	5.6	13.6	0	10	3.8	10.5	0.5
3105	532-1-3	Fagervatnet	3105	532-1-3	10.4963	60.1979	2.01	671	4.96	0.06	87.8	0	4.8	0	2.5	4.9	3	0.5
3106	533-3-17	Mylla	3106	533-3-17	10.6013	60.2425	18.27	646	11.57	1.7	83.9	0.8	1.6	0	11.4	2.3	9.3	1.67
3107	534-5-1	Randsfjorden	3107	534-5-1	10.3719	60.2337	3699.03	413	63.22	139.23	57.2	5.6	11.1	0	3.8	22.3	3.8	5.76
3108	536-1-12	Brokslitjernet	3108	536-1-12	10.2988	60.8026	0.54	438	1.72	0.04	77.7	0	15.3	0	5.4	1.6	7.4	0.5
3109	536-2-53	Kvitingen	17867	536-603	10.0447	60.7029	3.82	554		0.05	83.3	0	6.5	0	10.2	0	1.3	0.5
3110	538-1-20	Kolsrudvatnet	3110	538-1-20	10.2165	60.8926	1.24	457	0.93	0.05	83.6	0	14.3	0	2.1	0	4	0.5
3111	538-2-2	Vangsj?en	3111	538-2-2	9.9906	60.8773	0.35	479	10.05	0.13	44.9	0	0	0	96.1	-41	37	7.77
3112	540-2-21	Holmevatnet	3112	540-2-21	9.9118	60.7365	8.54	557	3.15	0.49	82.3	0	9.5	0	5.8	2.4	5.7	0.5
3113	540-2-22	?yvatnet	3113	540-2-22	9.8013	60.7781	0.64	452	4.72	0.15	75.7	0	2.9	0	21.4	0	23.3	2.43
3114	540-3-18	Vangen	17876	540-608	9.3661	60.6479	6.12	542		1.24	79.7	0	1.4	0	17.4	1.5	20.3	0.5
3115	541-2-3	Grannst?ltjernet	3115	541-2-3	9.6937	61.0473	0.53	678	9.14	0.08	87.3	0	7.6	0	4.8	0.3	15	2.02
3116	542-1-19	Nisetjernet	3116	542-1-19	9.4399	61.1214	16.43	557	1.73	0.04	0.4	0	3.6	0	0.4	95.6	0.2	0.5
3117	542-1-25	Nordre Valegrovtjernet	3117	542-1-25	9.4148	61.0827	0.76	575	2.19	0.06	0	0	16	0	8	76	7.9	0.5
3118	542-3-6	H?evatn	3118	542-3-6	9.2424	60.818	5.09	507	9.01	1.25	62.2	0	2	0	24.5	11.3	24.6	4.37
3119	542-3-8	Stogofjorden	3119	542-3-8	9.2059	60.8115	17.46	503	12.45	1.21	24.7	0	0.8	0	7.3	67.2	6.9	1.72
3120	543-3-2	Vasetvatnet	3120	543-3-2	8.9851	60.996	82.8	550	5.89	1.01	14.8	0	7.9	0	1	76.3	1.2	0.5
3121	543-4-4	Storfjorden	3121	543-4-4	8.8709	60.91	406.4	620	13.03	12.92	17.2	0	8.3	0.1	3.2	71.2	3.2	0.67
3122	544-1-2	HOH 955	3122	544-1-2	9.1797	61.1444	0.38	445	3.93	0.04	74	0	8	0	8	10	10.6	0.94
3123	544-1-27	HOH 1198	3123	544-1-27	8.8465	61.2947	0.21	981	1.77	0.05	0	0	0	0	20	80	24.3	0.5
3124	544-2-10	Fisketjerni	3124	544-2-10	8.7913	61.3964	3.68	1081	0.68	0.19	0	0	0	0	5	95	5.2	0.5
3125	544-2-11	Nordre Vindin	3125	544-2-11	9.0261	61.1953	1.92	441	4.13	0.25	83.1	0	1.3	0	15.6	0	13	1.22
3126	545-1-24	Myrjetjernet	3126	545-1-24	8.2879	61.3446	2.16	1317	4.47	0.07	0	0	0	0	3.2	96.8	3.2	0.5
3127	545-1-32	Tvindehaugtjernet	3127	545-1-32	8.3139	61.3236	2.49	1303	2.68	0.09	0	0	0	0	3.8	96.2	3.6	0.5
3128	545-2-4	HOH 1337	3128	545-2-4	8.1563	61.2273	1.98	1260	2.94	0.1	0	0	0	0	5	95	5.1	0.5
3129	545-2-13	Fussegrovtj?rni	3129	545-2-13	8.2843	61.0883	3.89	1052	6.04	0.14	0	0	0	0	4.1	95.9	3.6	0.5
3130	545-2-17	Langetjernet	3130	545-2-17	8.5948	61.2319	10.2	1342	31.56	2.12	0	0	0	0	10	90	20.8	4.89
3131	545-2-25	Seksin	3131	545-2-25	8.7381	61.3165	7.2	1054	8.79	0.54	0	0	4.3	0	8.7	87	7.5	0.63
3132	545-3-7	Helin	3132	545-3-7	8.7381	61.0059	57.14	829	38.64	9.47	26.8	0	0.9	0	16.9	55.4	16.6	7.72
3133	545-3-19	Nedre ?dalsvatnet	3133	545-3-19	8.1758	61.2358	8.94	1214	16.11	1.52	0	0	0	0	15.4	84.6	17	2.26
3134	545-4-1	Bygdin	3134	545-4-1	8.7971	61.3282	304.9	1026	72.64	39.89	0	0	0.5	3.6	13.1	82.8	13.1	9.26
3135	545-4-3	Vangsmj?si	3135	545-4-3	8.7014	61.1486	487.03	582	65.05	18.25	27.9	0	1.4	0	4.2	66.5	3.7	4.19
3136	545-4-5	Tyin	3136	545-4-5	8.1411	61.2746	182.26	1220	50.06	33.02	0	0	0.1	4.1	18	77.8	18.1	7.43
3137	604-1-17	Trytetjerna	3137	604-1-17	9.5888	59.586	4.31	652	0.76	0.04	93	0	5	0	0.8	1.2	0.9	0.5
3138	604-2-18	Tverrvatnet	3138	604-2-18	9.6349	59.4799	0.85	987	5.87	0.14	79.2	0	2.6	0	18.2	0	16.4	0.97
3139	605-1-5	Gravvatnet	3139	605-1-5	9.8305	60.4565	1.05	785	2.64	0.04	87.6	0	1	0	3.8	7.6	3.8	0.5
3140	605-2-1	?vre Kollsj?	17888	605-602	9.9097	60.3497	29.63	576		0.29	76.8	0	0.4	0	0.9	21.9	1	0.5
3141	612-5-1	Tyrifjorden	3141	612-5-1	9.9671	59.9301	9954	445	7.93	138.56	58.9	4.6	8.2	0	1.3	27	1.4	0.5
3142	615-2-17	Eitrytetjern	3142	615-2-17	9.435	60.3582	1.24	617	5.98	0.14	15.7	0	4.6	0	13	66.7	11.3	1.1
3143	616-1-10	Kytetjernet	3143	616-1-10	8.9263	60.5789	20.32	429	2.91	0.06	91	0	5.9	0	0.3	2.8	0.3	0.5
3144	616-1-12	F?rkjetjernet	3144	616-1-12	9.0697	60.5116	1.24	471	7.2	0.07	67.2	0	6.3	0	5.5	21	5.7	0.87
3145	616-1-13	Langevatnet	3145	616-1-13	8.7412	60.5096	1.59	584	2.22	0.07	78.7	0	3.9	0	4.5	12.9	4.4	0.5
3146	616-1-26	Hammartj?rnet	3146	616-1-26	8.8056	60.586	0.53	537	2.3	0.07	79.9	0	7.8	0	12.4	-0.1	13.2	0.57
3147	616-1-31	Vardetjernan	3147	616-1-31	8.8872	60.5983	0.84	479	3.81	0.05	86.7	0	5.8	0	4.2	3.3	6	0.5
3148	616-2-6	Ausa	3148	616-2-6	8.7737	60.5619	3.63	580	2.33	0.12	28.2	0	5.6	0	3.4	62.8	3.3	0.5
3149	616-2-20	Belgevatnet	3149	616-2-20	8.7793	60.5799	5.95	545	7.93	0.7	76.7	0	3.8	0	13.3	6.2	11.8	1.71
3150	617-1-19	Nyst?ltj?rni	3150	617-1-19	8.7942	60.7187	0.35	484	2.63	0.06	2.9	0	40	0	17.1	40	17.4	0.95
3151	617-1-23	Metubba	3151	617-1-23	9.0883	60.7873	6.28	416	1.37	0.08	56.9	0	29.4	0	1.2	12.5	1.3	0.5
3152	617-1-28	?rkvatnet	3152	617-1-28	8.98	60.7641	8.1	392	2.82	0.07	79.6	0	11.1	0	9.2	0.1	0.9	0.5
3153	618-1-3	HOH 1456	3153	618-1-3	8.1481	60.9001	6.27	899	5.39	0.07	0	0	0	0	1.1	98.9	1.1	0.5
3154	618-3-1	Vannen	3154	618-3-1	8.7326	60.8417	15.96	655	5.86	1.9	76	0	6	0	12.7	5.3	11.9	1.07
3156	618-3-6	Storevatnet	3156	618-3-6	8.8271	60.8715	90.16	631	12.15	4.88	28.2	0	3.4	0	5.8	62.6	5.4	1.04
3157	619-1-1	Butj?rni	3157	619-1-1	8.6752	60.5686	0.27	583	2.56	0.07	0	0	6.7	0	23.3	70	26.2	1.15
3158	619-2-19	Mefaringen	3158	619-2-19	8.5306	60.5675	3.18	528	6.03	0.63	68.3	0	1.7	0	21	9	19.8	2.26
3159	619-2-33	Austre Fl?runnsvatnet	3159	619-2-33	7.8097	60.8625	1.85	1195	4.42	0.26	0	0	0	0	13	87	14	0.52
3160	619-3-2	Vassfjorden	3160	619-3-2	8.4217	60.6907	177.79	653	8.94	1.34	9	0	0.4	0.1	0.3	90.2	0.8	0.5
3161	619-3-10	Halldalsvatnet	3161	619-3-10	8.479	60.4935	59.36	435	10.03	2.13	79.1	0	1.5	0	3.6	15.8	3.6	0.83
3162	620-1-6	HOH 1760	3162	620-1-6	7.7031	60.6008	1.1	1397	5.95	0.07	0	0	0	0	9.2	90.8	6.4	0.5
3163	620-1-14	HOH 1340	3163	620-1-14	7.7352	60.6416	8.32	1526	6.29	0.08	0	0	0	32.4	1.1	66.5	1	0.5
3164	620-1-15	Skarv?j?rnane	3164	620-1-15	7.7454	60.7041	0.37	1259	1.3	0.06	0	0	0	0	17.6	82.4	16.3	0.5
3165	620-1-21	HOH 1540	3165	620-1-21	7.6962	60.6288	0.22	1419	6.33	0.05	0	0	0	0	45.5	54.5	22.7	1.01
3166	620-3-7	Skurdalsfjorden	3166	620-3-7	8.3155	60.4614	109.2	491	7.35	2.06	32.7	0.5	2.3	0	1.9	62.6	1.9	0.5
3167	620-4-6	?rteren	3167	620-4-6	7.8292	60.4804	75.58	1023	2.47	10.46	0	0	1.2	0	14.6	84.2	13.8	0.5
3168	621-1-27	Fl?atna	3168	621-1-27	9.1877	60.2009	4.45	622	2.73	0.07	82.1	0	1.7	0	1.7	14.5	1.6	0.5
3169	621-3-5	Soneren	3169	621-3-5	9.5898	60.0415	680.38	595	20.11	6.49	87.7	0.1	0.1	0	1.2	10.9	1	0.5
3170	622-2-43	Trytetjern	3170	622-2-43	9.7678	60.2127	4.19	527	9.54	0.17	94.8	0	0.7	0	4.2	0.3	4.1	0.73
3171	622-4-4	Kr?deren	3171	622-4-4	9.7834	60.1231	5079.2	498	30.45	42.88	41.3	1.9	4.4	0	0.8	51.6	0.8	0.52
3173	624-1-8	Gr?ntjern	3173	624-1-8	9.7124	59.7121	2.2	512	6.43	0.07	94	0	2.5	0	3	0.5	3.2	0.5
3174	624-1-55	Br?avatnet	3174	624-1-55	9.8559	59.6385	0.92	553	7.86	0.06	91.8	0	1.2	0	7.1	-0.1	6.5	0.93
3175	624-2-23	Skogsvatnet	3175	624-2-23	9.9377	59.8229	2.01	493	6.7	0.13	91.5	0	0.6	0	7.9	0	6.5	0.88
3176	624-4-5	Eikeren	3176	624-4-5	9.8446	59.6999	343.72	288	85.17	27.02	83.2	0.3	0.7	0	9.9	5.9	7.9	23.25
3177	631-1-4	Nydammen	3177	631-1-4	9.4672	59.7452	0.12	763	2.44	0.04	60	0	13.3	0	26.7	0	34.7	1.11
3178	631-2-29	Tryttjern	3178	631-2-29	9.6599	59.8818	1.28	631	5.07	0.1	89.2	0	2.5	0	8.3	0	7.8	0.63
3179	632-1-20	Trytetj?rn	3179	632-1-20	9.3759	59.9837	0.57	665	7.14	0.06	71.7	0	5	0	11.7	11.6	10.5	1.12
3180	633-1-11	?vre Halstj?rnane	3180	633-1-11	8.1806	60.257	3.09	679	1.34	0.09	0	0	1.1	0	2.3	96.6	2.9	0.5
3181	633-1-16	HOH 1217	3181	633-1-16	7.7333	60.2236	7.09	781	0.42	0.04	0	0	6.9	0	0.5	92.6	0.6	0.5
3182	633-1-18	HOH 1250	3182	633-1-18	8.6188	60.3081	1.69	775	1.58	0.09	0	0	0.6	0	5	94.4	5.3	0.5
3183	633-1-29	Tj?rngr?tj?rnane	3183	633-1-29	8.3479	60.3612	0.8	546	3.67	0.04	0	0	4.2	0	5.6	90.2	5	0.5
3184	633-1-30	S?enattj?rnan	3184	633-1-30	9.135	60.3598	4.56	557	4.28	0.04	23.9	0	0.9	0	0.9	74.3	0.9	0.5
3185	633-2-2	Frygnevatnet	3185	633-2-2	8.6371	60.3934	18.33	528	5.11	0.32	60.5	0	16	0	1.7	21.8	1.7	0.5
3186	633-2-4	Gr?settj?rni	3186	633-2-4	9.0833	60.3672	2.52	525	2.98	0.11	5.8	0	3.8	0	4.2	86.2	4.4	0.5
3187	633-2-8	Vestre S?ltj?rni	3187	633-2-8	8.2431	60.1843	15.19	679	1.96	0.38	0	0	4	0	9.1	86.9	2.5	0.5
3188	633-2-11	?vre Nutetj?rnane	3188	633-2-11	8.3669	60.1928	1.56	716	5.6	0.22	0	0	0	0	21.4	78.6	14.1	1.1
3189	633-2-13	Holmevatni	3189	633-2-13	8.9416	60.4254	4.6	566	7.12	0.76	0	0	2.2	0	16.5	81.3	16.5	2.08
3190	633-2-21	Fl??j?rni	3190	633-2-21	8.5191	60.2412	21.05	715	2.01	0.12	0	0	0.7	0	0.6	98.7	0.6	0.5
3191	633-2-24	Vegardhovdtj?rnan	3191	633-2-24	7.8227	60.1436	6.03	803	1.43	0.19	0	0	1.7	0	3	95.3	3.2	0.5
3192	633-2-25	HOH 1065	3192	633-2-25	9.1111	60.3146	3.02	607	6.84	0.1	0.3	0	3.3	0	3.3	93.1	3.3	0.5
3193	633-3-14	Krossvatnet	3193	633-3-14	8.0063	60.2569	408.44	576	2.05	1.61	0	0	0.2	0	0.4	99.4	0.4	0.5
3194	633-4-8	Langesj?en	3194	633-4-8	7.8736	60.2598	128.74	739	4.8	10.78	0	0	1.6	0	8.4	90	8.4	0.54
3195	709-1-5	B?sr?dtjernet	3195	709-1-5	9.8598	59.0194	2.6	692	6.17	0.09	94.3	0	1.8	0	3.9	0	3.5	0.5
3196	714-3-5	Bergsvatnet	3196	714-3-5	10.0462	59.5958	179.13	715	11.03	3.06	87.4	0.6	0.6	0	2.1	9.3	1.7	0.5
3197	720-2-1	Gjennestadvatnet	3197	720-2-1	10.2516	59.233	3.95	627	4.64	0.25	56.6	28.2	5.5	0	9.7	0	6.3	0.5
3198	728-1-3	Solbergvatnet	3198	728-1-3	9.9892	59.3324	3.6	847	4.24	0.06	93.8	0	1	0	3.9	1.3	1.7	0.5
3199	728-1-6	Rosovatnet	3199	728-1-6	10.012	59.4016	5.49	788	5.61	0.04	93.9	0	4.3	0	0.8	1	0.7	0.5
3200	806-2-23	Holmevatn	3200	806-2-23	9.5906	59.45	4.19	1031	6.85	0.17	71.1	0	3.4	0	4.5	21	4.1	0.5
3201	807-1-36	Vassenden	3201	807-1-36	9.3491	59.5997	14.56	526	2.09	0.06	94.8	0	2.3	0	0.4	2.5	0.4	0.5
3203	807-3-1	S?nstevatn	3203	807-3-1	9.1502	59.707	42.65	549	7.94	2.54	82	0	1.5	0	6.1	10.4	6	0.86
3204	807-4-1	Heddalsvatnet	3204	807-4-1	9.3077	59.4358	5357.15	607	33.34	13.39	29.1	1.1	0.3	0	0.3	69.2	0.2	0.5
3205	814-2-4	Grummestadvatnet	3205	814-2-4	9.463	58.9391	62.4	858	15.49	0.84	90.4	0.2	0.6	0	1.4	7.4	1.3	0.5
3206	815-1-29	HOH 50	3206	815-1-29	9.2809	58.892	2.06	906	5.93	0.07	80.7	14.6	1	0	3.6	0.1	3.4	0.5
3207	815-2-27	L?nstravatnet	3207	815-2-27	9.2528	58.8743	3.41	912	8.97	0.18	90	0	3.4	0	5.6	1	5.3	0.52
3208	815-3-8	Leivatnet	3208	815-3-8	9.327	58.7625	47.93	715	14.78	1.39	89.9	0.5	0.4	0	2.4	6.8	2.9	0.6
3209	817-1-14	Teksle	3209	817-1-14	9.1509	59.0228	1.79	719	3.67	0.06	92.2	0	2.2	0	3.3	2.3	3.3	0.5
3210	817-1-33	Store Kyrsvatnet	3210	817-1-33	9.1194	59.1003	7.51	727	6.14	0.08	95.2	0	0.8	0	1.1	2.9	1.1	0.5
3211	817-1-34	HOH 70	3211	817-1-34	9.2073	59.003	1.05	767	3.16	0.06	82.5	0	0	0	17.5	0	5.7	0.5
3212	817-1-38	Signevatnet	3212	817-1-38	9.1218	59.1502	2.05	794	5.45	0.08	92.4	0	1.5	0	4.1	2	3.9	0.5
3213	817-1-43	Skultrevatnet	3213	817-1-43	9.2688	59.0716	1.51	772	4.86	0.04	92.1	0	3.6	0	3.6	0.7	2.6	0.5
3214	817-1-72	Dei store tj?rnane	3214	817-1-72	8.6851	59.0719	0.32	1192	2.27	0.04	11.4	0	5.7	0	17.1	65.8	12.7	0.5
3215	817-2-61	Sandvatnet	3215	817-2-61	8.7473	59.0873	3.87	1058	9.63	0.61	78.1	0	1.6	0	16.7	3.6	15.8	1.43
3217	819-2-13	Prestevatnet	3217	819-2-13	9.2064	59.1661	3.11	784	11.76	0.26	87.6	0	0.7	0	9	2.7	8.4	1.25
3218	819-2-14	B?vatnet	3218	819-2-14	9.2303	59.1422	28.04	759	12.63	0.72	92.7	0	1.1	0	2.7	3.5	2.6	0.5
3219	819-3-17	Store B?rten	3219	819-3-17	9.2312	59.1718	87.77	733	22.67	1.09	91.9	0	1	0	2	5.1	1.2	0.5
3220	822-2-11	B?rtevatn	3220	822-2-11	9.3562	59.4087	4.89	699	17.93	0.25	80.5	0	0.6	0	5.1	13.8	5.1	1.31
3221	826-1-7	Vesle Flottetj?rn	3221	826-1-7	8.5213	59.9798	2.34	822	2.76	0.09	0	0	0	0	2.3	97.7	3.9	0.5
3222	826-1-16	Svarttj?rn	3222	826-1-16	8.8587	59.8923	0.46	768	8.26	0.06	0	0	0	0	20	80	13.1	1.4
3223	826-1-17	HOH 1162	3223	826-1-17	8.4932	59.9631	7.77	829	3.81	0.08	0	0	0	0	15.3	84.7	1	0.5
3224	826-1-18	Fikstj?rn	3224	826-1-18	8.6182	59.8511	0.85	858	4.73	0.07	42.9	0	0	0	14.3	42.8	8.3	0.5
3225	826-1-20	Grysletj?rn	3225	826-1-20	8.593	59.9736	0.46	844	3.68	0.09	0	0	0	0	12.5	87.5	19.5	0.85
3226	826-1-25	HOH 1335	3226	826-1-25	8.0369	60.1576	0.87	840	2.8	0.07	0	0	2.6	0	7.7	89.7	8.1	0.5
3227	826-1-28	Storsteinvatnet	3227	826-1-28	8.3501	59.7936	0.99	699	4.25	0.06	10.8	0	2.4	0	5.4	81.4	6.1	0.5
3228	826-1-30	Ormetj?rn	3228	826-1-30	8.5085	59.9029	0.91	783	1.55	0.06	0	0	2.2	0	4.8	93	6.6	0.5
3229	826-1-35	Langtj?rn	3229	826-1-35	8.4071	60.0246	1.08	758	3.05	0.04	0	0	1.9	0	3.8	94.3	3.7	0.5
3230	826-1-39	Torjustj?rn	3230	826-1-39	8.4822	59.9434	0.26	829	2.03	0.05	0	0	0	0	14.3	85.7	19.6	0.5
3231	826-2-6	Viktj?rn	3231	826-2-6	8.1406	60.1135	3.03	835	5.54	0.4	0	0	0	0	12.9	87.1	13.2	0.88
3232	826-2-24	Longetj?rn	3232	826-2-24	8.7693	59.8919	0.84	804	3.59	0.15	34.3	0	22.9	0	10.9	31.9	17.8	0.79
3233	826-3-9	Sandvatn	17957	826-605	9.0954	59.7934	122.59	718		1.33	114.75	0.5	3.2	0	0	-18.45	1.1	0.5
3234	827-1-23	Lysetj?rn	3234	827-1-23	8.4562	59.7925	14.61	1050	3.17	0.07	3.5	0	3.5	0	0.4	92.6	0.5	0.5
3235	827-1-41	HOH 1102	3235	827-1-41	8.4582	59.8168	2.05	955	5.55	0.05	0	0	5	0	2.5	92.5	2.4	0.5
3236	827-2-32	Sjausetvatnet	3236	827-2-32	8.8046	59.6805	3.78	807	7.63	0.15	53.8	0	12.3	0	10.8	23.1	4	0.5
3237	827-3-23	Heddevatnet	3237	827-3-23	8.6159	59.819	29.96	989	14.46	1.05	47.1	0	3.6	0	4	45.3	3.5	0.51
3238	827-3-26	Sj?atnet	3238	827-3-26	8.8581	59.8314	37.99	958	16.45	6.56	39.7	0	7.1	0	22.9	30.3	17.3	2.96
3239	828-1-22	Sandtj?rni	3239	828-1-22	8.386	59.7755	2.53	1010	3.95	0.05	0	0	3.6	0	2.9	93.5	2	0.5
3240	828-2-9	P?buvatnet	17966	828-603	8.6651	59.4071	6.96	751		0.56	66.4	0	0	0	8	25.6	8	0.5
3241	828-2-25	Grotvatni	3241	828-2-25	8.3604	59.7375	6.94	1112	4.05	0.18	0	0	4	0	3.4	92.6	2.6	0.5
3242	829-1-46	Stest?yltj?rni	3242	829-1-46	8.3015	59.382	1.37	598	4.47	0.05	90.9	0	7.1	0	1.9	0.1	3.7	0.5
3243	829-2-59	Bj?rntj?rn	3243	829-2-59	8.2535	59.3027	1.78	844	8.98	0.15	21.5	0	0	0	7.9	70.6	8.4	0.9
3244	829-4-6	Kvitseidvatnet	3244	829-4-6	8.6623	59.3205	2970.46	798	81.2	13.34	20	0.8	16.7	0	0.5	62	0.4	0.5
3245	830-2-26	Maavatn	15705	830-26	8.6301	59.208	3.26	799		0.73	76.7	0	0	0	20.3	3	22.4	0.5
3246	831-1-26	Snotj?rnane	3246	831-1-26	7.7663	59.1383	1.51	1206	2.13	0.05	0	0	4.7	0	7	88.3	3.3	0.5
3247	831-2-3	?vre Selbuvatn	3247	831-2-3	7.9759	58.9723	2.39	1188	6.86	0.17	84.1	0	4.2	0	5.9	5.8	7.1	0.5
3248	831-2-15	Grimvatn	3248	831-2-15	7.9527	59.1872	5.7	872	8.1	0.21	84.1	0	3.6	0	3.8	8.5	3.7	0.5
3249	831-2-29	Tussetj?rn	3249	831-2-29	7.8651	59.1643	7.26	1079	4.41	0.14	21.5	0	2	0	2	74.5	1.9	0.5
3250	831-2-60	Kr?est?ltj?rn	3250	831-2-60	7.9915	59.0089	4.71	1155	14.93	0.42	76.6	0	2.2	0	7.8	13.4	8.9	1.15
3251	831-3-20	Mj?atn	17988	831-15	7.9981	59.3109	11.7	894		1.15	66.3	0	5.9	0	11.2	16.6	9.8	0.5
3252	831-3-32	Sandvatnet	3252	831-3-32	8.2371	59.2151	9.28	886	21.19	1.38	63.3	0	1.1	0	14.5	21.1	14.9	3.56
3253	831-4-8	Fyresvatnet	3253	831-4-8	8.2681	59.0094	875.75	929	94.58	49.63	42.3	0.6	1.7	0	6.6	48.8	5.7	5.77
3254	833-1-21	Grunntj?rn	3254	833-1-21	8.2674	59.5577	0.44	824	5.19	0.06	66.7	0	0	0	12.8	20.5	13.6	0.86
3255	833-2-16	Kambetj?rn	3255	833-2-16	7.7654	59.3731	2.43	1158	6.43	0.29	78.4	0	4	0	11.2	6.4	11.9	0.66
3256	833-2-30	Kj?nnesviksvatnet	3256	833-2-30	7.7161	59.3445	11.16	1271	13.77	0.84	40.9	0	0.6	0	7.6	50.9	7.5	0.82
3257	833-3-3	?livatn	3257	833-3-3	8.0412	59.3839	38.05	798	8.39	1.18	88.7	1.3	2.9	0	3.1	4	3.1	0.5
3258	834-1-2	Langetj?rn	3258	834-1-2	7.5203	59.7163	3.34	1013	2.68	0.04	89	0	2.1	0	1.4	7.5	1.2	0.5
3259	834-1-6	HOH 1387	3259	834-1-6	7.3867	59.984	0.37	1540	4.17	0.08	0	0	0	0	16.7	83.3	21.8	0.59
3260	834-2-2	Midtre Supsavatn	3260	834-2-2	7.6942	59.6221	20.66	1686	14.41	0.26	0	0	0.6	0	1.3	98.1	1.3	0.5
3261	834-2-5	Vonevatn	3261	834-2-5	7.6942	59.8393	2	1324	5.78	0.21	0	0	1.6	0	10.9	87.5	10.5	0.5
3262	834-2-8	Fetveittj?rn	3262	834-2-8	7.8777	59.6257	2.06	894	5.13	0.14	90.4	0	2.1	0	7.4	0.1	6.8	0.5
3263	834-2-10	Straumst?ltj?rn	3263	834-2-10	7.6933	59.7324	1.61	956	6.29	0.1	1.8	0	0	0	6	92.2	6.2	0.5
3264	834-2-12	Torstj?rni	3264	834-2-12	7.993	60.0363	2.02	934	7.3	0.39	0	0	1.1	0	19.7	79.2	19.3	1.51
3265	834-2-18	S?etj?rn	3265	834-2-18	8.114	59.9284	1.02	1225	7.17	0.15	0	0	0	0	13	87	14.7	0.86
3266	834-2-26	Vikvatnet	3266	834-2-26	8.2036	59.6084	36.17	894	10.17	0.53	77.4	0	0.8	0	1.5	20.3	1.5	0.5
3267	834-2-28	HOH 1367	3267	834-2-28	7.7895	59.9685	0.8	1272	3.06	0.24	0	0	0	0	35.3	64.7	30.2	0.73
3269	834-3-10	Vr?j?n	18013	834-604	8.0828	60.0349	92.72	838		2.59	0	0	1.1	0	2.8	96.1	2.8	0.5
3270	834-3-14	Lognvikvatn	3270	834-3-14	8.0989	59.6837	72.09	756	28.05	5.12	63.2	2	2.2	0	6.6	26	7.1	2.63
3271	834-4-5	Totak	3271	834-4-5	8.0158	59.6458	860.06	719	63.33	36.59	43.7	5.5	1.2	0	4.3	45.3	4.3	3.75
3272	834-4-7	Holmavatnet	3272	834-4-7	7.143	59.6795	53.88	2192	28.59	11.13	0	0	0	0	21.1	78.9	20.7	2.69
3273	901-1-55	Stavvatn	3273	901-1-55	8.9732	58.7161	1.06	971	2.56	0.06	87.6	0	3.1	0	6.2	3.1	5.7	0.5
3274	901-2-49	Mj?atnet	3274	901-2-49	9.0354	58.7563	6.5	940	10.99	0.68	86.3	0	1.8	0	11	0.9	10.5	1.22
3275	901-3-8	Dalsvatnet	3275	901-3-8	9.113	58.7536	18.95	868	22.43	2.45	79	0	0.8	0	15.9	4.3	12.9	3.34
3276	904-3-25	Sn?l?svatn	15712	904-12	8.4843	58.4754	10.99	1212		1.26	77.6	3.8	1.5	0	9.4	7.7	11.5	0.5
3277	912-2-4	Simonstadvatnet	3277	912-2-4	8.9799	58.7763	8.3	981	3.12	0.12	95.2	0.8	1.2	0	1.4	1.4	1.4	0.5
3278	912-2-14	Midtvatnet	3278	912-2-14	8.7439	58.6841	9.05	1034	4.41	0.3	87.8	1.2	3.2	0	3.2	4.6	3.3	0.5
3279	912-2-18	Lj?stadvatnet	3279	912-2-18	8.8901	58.7535	10.66	1037	3.87	0.44	88.8	0	2.2	0	5	4	4.1	0.5
3281	912-2-30	HOH 170	3281	912-2-30	8.9451	58.735	1.24	1034	3.11	0.11	87.6	1.9	3.8	0	5.7	1	8.9	0.5
3282	914-1-14	V?andstjern	3282	914-1-14	8.7524	58.6101	2.28	1015	5.45	0.07	92.2	0	1.6	0	5.5	0.7	3.1	0.5
3283	914-1-31	HOH 146	3283	914-1-31	8.7788	58.6437	0.9	992	5.7	0.09	72	0	1.3	0	12	14.7	10	0.57
3284	914-2-50	Stokkebuvatnet	18042	914-15	8.9693	58.6121	1.68	795		0.21	82.6	0	0	0	17.4	0	12.5	0.5
3285	919-2-19	?evatnet	3285	919-2-19	8.3726	58.6709	5.91	823	7.01	0.29	89.7	0	4.3	0	5	1	4.9	0.5
3286	928-1-17	Krokevatn	3286	928-1-17	8.2347	58.429	0.85	1203	1.03	0.07	83.3	0	3.8	0	9	3.9	8.2	0.5
3288	929-1-1	Eiklitj?rn	3288	929-1-1	8.4148	58.791	0.57	876	6.21	0.06	87.7	0	3.1	0	9.2	0	10.5	0.74
3289	929-1-5	Berlitj?rnane	3289	929-1-5	8.6171	58.8578	0.59	785	1.35	0.04	88.3	0	5	0	6.7	0	6.8	0.5
3290	929-1-20	Imetjern	3290	929-1-20	8.4962	58.7474	0.94	784	2.27	0.04	91.7	0	1.4	0	6.9	0	4.3	0.5
3291	929-1-22	?ytj?rn	3291	929-1-22	8.1251	58.8862	0.43	1308	6.82	0.04	78.3	0	6.5	0	13	2.2	9.2	0.5
3292	929-2-8	?vre Sk?vatn	3292	929-2-8	8.6639	58.7912	6.37	878	8.57	0.16	92.9	0	3.6	0	2.4	1.1	2.5	0.5
3293	929-2-25	Stemmevatn	3293	929-2-25	8.5747	58.9263	0.48	739	5.5	0.15	62.5	0	4.2	0	33.3	0	31.2	2.32
3294	929-2-26	Lauvlivatn	3294	929-2-26	8.2986	58.7986	4.17	1127	5.58	0.1	83.7	0	6.7	0	2.7	6.9	2.4	0.5
3295	929-3-23	M>vatn	18073	929-605	8.3577	58.8784	7.93	968		3.37	56	0	1.2	0	40.5	2.3	42.5	0.5
3296	937-2-1	Midtvatnet	3296	937-2-1	7.6524	58.4732	3.84	1333	2.19	0.2	81.9	0	8.4	0	4.8	4.9	5.2	0.5
3298	938-1-9	Longeraktj?rn	3298	938-1-9	7.9448	58.765	0.64	1077	5.74	0.08	78.6	0	1.4	0	11.4	8.6	12.6	0.67
3299	938-1-23	Kvivotnan	3299	938-1-23	7.175	58.9292	5.98	1705	6.79	0.08	0	0	0	0	1.3	98.7	1.3	0.5
3300	938-1-27	F?etj?rn	3300	938-1-27	7.861	58.7767	1.65	1028	5.39	0.04	43.9	0	0	0	2.9	53.2	2.4	0.5
3301	938-1-28	Hovotni	3301	938-1-28	7.7197	59.0386	2.05	1123	2.35	0.08	44.4	0	0	0	5.3	50.3	3.9	0.5
3302	938-1-29	Beritstj?rni	3302	938-1-29	7.919	58.7408	0.3	1156	1.6	0.04	0	0	7.1	0	17.9	75	13.3	0.5
3303	938-2-10	Skjevlevatni	3303	938-2-10	7.9965	58.8828	1.19	1221	8.35	0.22	40	0	2.5	0	18.3	39.2	18.4	1.26
3304	938-2-15	Fl?atnet	3304	938-2-15	7.2941	58.9463	1.39	1841	6.6	0.19	0	0	0.7	0	13.7	85.6	13.7	0.5
3305	938-3-24	Sandsvatnet	3305	938-3-24	7.9665	58.7971	22.84	1202	19.06	2.24	84.8	0	0.4	0	5.2	9.6	9.8	1.56
3306	938-4-1	?aksfjorden	3306	938-4-1	7.75	58.8505	2459.19	938	37.2	11.96	30.3	0.9	3.7	0	0.4	64.7	0.5	0.5
3307	940-1-4	Urdevotni	3307	940-1-4	7.3304	59.05	0.7	1625	4.39	0.08	2	0	2	0	8	88	11.5	0.5
3308	940-1-6	HOH 1220	3308	940-1-6	7.2034	59.2172	1.98	2449	3.99	0.07	0	0	0	0	16.3	83.7	3.5	0.5
3309	940-1-10	HOH 1114	3309	940-1-10	7.3722	59.122	0.46	1785	2.33	0.05	0	0	0	0	10	90	10.9	0.5
3310	940-1-11	HOH 1285	3310	940-1-11	7.1775	59.2352	0.17	2345	3.33	0.08	0	0	0	0	34.8	65.2	46.4	0.66
3311	940-1-13	HOH 1238	3311	940-1-13	7.1109	59.2007	0.56	2638	4.31	0.08	0	0	0	0	24	76	14.2	0.5
3312	940-1-24	HOH 1050	3312	940-1-24	7.6461	59.332	0.73	1285	1.85	0.05	6	0	0	0	10	84	6.8	0.5
3313	940-2-33	Hovdevatnet	3313	940-2-33	7.432	59.111	8.67	1423	3.32	0.11	63.8	0	0	0	1.2	35	1.3	0.5
3314	940-2-51	Langevatn	3314	940-2-51	7.7229	59.0617	4.87	1172	15.2	0.4	44.9	0	0	0	9.9	45.2	8.2	1.07
3315	940-2-52	?vre Krokvatnet	3315	940-2-52	7.3736	59.1954	2.04	1961	8.48	0.18	0	0	0	0	10.3	89.7	8.8	0.5
3316	940-2-53	Ljomsvatnet	3316	940-2-53	7.6043	59.1769	1.7	1159	9.78	0.32	1.3	0	0	0	8	90.7	18.8	1.59
3317	941-1-3	HOH 1110	3317	941-1-3	7.1427	59.6234	0.58	2107	1.53	0.04	0	0	0	0	16.7	83.3	6.9	0.5
3318	941-1-8	HOH 1168	3318	941-1-8	6.987	59.512	1.57	2535	4.3	0.07	0	0	0	0	4.3	95.7	4.4	0.5
3319	941-1-15	HOH 1040	3319	941-1-15	6.992	59.2961	3.14	2218	4.12	0.05	0	0	0	0	1.5	98.5	1.6	0.5
3320	941-1-18	HOH 1260	3320	941-1-18	6.9056	59.2141	0.37	2236	2.85	0.04	0	0	0	0	18.8	81.2	10.7	0.5
3321	941-1-30	HOH 1221	3321	941-1-30	6.8762	59.2127	1.18	2641	2.93	0.08	0	0	0	0	2.5	97.5	6.8	0.5
3322	941-2-2	HOH 1238	3322	941-2-2	7.596	59.457	3.15	1586	9.31	0.1	0	0	0	0	3	97	3.2	0.5
3323	941-2-17	Reinevasstj?rni	3323	941-2-17	7.2088	59.4064	1.21	2300	5.59	0.29	0	0	0	0	19.8	80.2	23.9	0.58
3324	941-2-32	HOH 1080	3324	941-2-32	6.8549	59.3371	1.27	2513	3.95	0.13	0	0	0	0	26.4	73.6	10.2	0.5
3325	941-2-34	Den lange tj?rni	3325	941-2-34	7.2353	59.6539	0.84	1785	8.6	0.13	0	0	0	0	14.7	85.3	15.4	0.74
3326	941-3-5	Reinevatn	3326	941-3-5	7.2189	59.4005	15.49	2263	14.48	2.86	0	0	0	0	17.2	82.8	18.5	1.18
3327	941-3-12	Breivevatnet	3327	941-3-12	7.2987	59.5673	108.25	1438	13.36	1.13	9.8	0	0.7	0	1.1	88.4	1	0.5
3328	941-3-13	Ormsavatnet	3328	941-3-13	7.1665	59.5062	98.48	2010	24.3	3.11	4.7	0	1.2	0	4.4	89.7	3.2	0.5
3329	941-3-18	Urdevatnet	3329	941-3-18	7.0184	59.5755	9.37	2146	18.43	1.5	0	83.5	0	0	14.7	1.8	16	1.38
3330	941-4-2	Store Urevatn	3330	941-4-2	7.1872	59.4585	54.09	2174	32.42	14.61	0	0	0	0	12.5	87.5	27	4.03
3331	1001-1-55	Skeivatnet	3331	1001-1-55	7.8625	58.2212	0.74	1292	7.61	0.05	88	0	4	0	6	2	6.7	0.5
3333	1002-1-62	Vr?atn	3333	1002-1-62	7.4024	58.0873	0.71	1713	7.02	0.06	79	6.5	4.8	0	9.7	0	8.4	0.5
3334	1003-1-16	HOH 130	3334	1003-1-16	6.7592	58.2138	1.14	1725	8.15	0.06	75.2	0	2.9	0	6.7	15.2	5.2	0.5
3335	1003-1-18	HOH 14	3335	1003-1-18	6.8741	58.0967	0.24	1211	5.42	0.06	86.94	3.61	0.83	0	0	8.62	24.7	1.11
3336	1003-2-2	Brastadvatnet	3336	1003-2-2	6.6861	58.0983	5.29	864	3.69	0.18	20.1	70.4	2.5	0	4.5	2.5	3.4	0.5
3337	1004-1-2	Engelsvatnet	3337	1004-1-2	6.6643	58.227	0.33	1672	7.77	0.07	77.1	0	2.9	0	20	0	21	0.98
3338	1004-1-21	Skultj?rnan	3338	1004-1-21	6.6371	58.5364	0.98	2213	9.11	0.07	0	0	0	0	6.9	93.1	7.1	0.5
3339	1004-1-22	Skrubbedalstj?rna	3339	1004-1-22	6.6406	58.6056	0.21	2258	5.51	0.07	3.5	0	0	0	2.8	93.7	33.8	0.82
3340	1004-2-6	Djupvatnet	3340	1004-2-6	6.7144	58.4996	0.84	2004	11.62	0.13	0	0	0	0	12.9	87.1	15.5	0.9
3341	1017-1-14	Gyvatnet	3341	1017-1-14	7.7132	58.2891	1.67	1319	8.04	0.05	86.2	0	3.8	0	3.8	6.2	3	0.5
3342	1017-1-31	Gardvatnet	3342	1017-1-31	7.5974	58.3186	1.06	1233	4.46	0.05	88.4	0	2.7	0	4.5	4.4	4.7	0.5
3343	1021-1-27	Grunnevatnet	3343	1021-1-27	7.5973	58.2466	0.46	1420	3.66	0.06	80	0	13.8	0	6.3	-0.1	13.1	0.5
3344	1021-1-61	Kringlevatnet	3344	1021-1-61	7.6665	58.1887	0.67	1514	3.66	0.05	82.1	3	6	0	7.5	1.4	7.4	0.5
3345	1026-1-6	HOH 737	3345	1026-1-6	7.1909	58.6646	3.23	2451	6.1	0.08	0	0	1.5	0	2.5	96	2.5	0.5
3346	1026-1-10	HOH 875	3346	1026-1-10	7.2006	58.8296	0.37	1859	3.53	0.05	0	0	0	0	9.5	90.5	13.5	0.5
3347	1026-2-10	Kjosevatn	3347	1026-2-10	7.6396	58.7502	13.72	1348	8.29	0.59	58.2	0	0	0	3.9	37.9	4.3	0.5
3348	1026-2-20	Storevatn	3348	1026-2-20	7.4308	58.7665	1.2	1698	6.66	0.13	11.8	0	0	0	7.9	80.3	10.8	0.5
3349	1026-2-25	Storevatnet	3349	1026-2-25	7.3325	58.5448	6.72	1924	13.12	0.83	35.8	0	1.5	0	11.9	50.8	12.3	0.84
3350	1026-2-27	Storevatn	3350	1026-2-27	7.347	58.8392	11.96	1688	10.78	0.24	25.4	0	0	0	1.9	72.7	2	0.5
3351	1026-2-28	Sandvatn	3351	1026-2-28	7.1646	58.7748	4.69	2191	10.24	0.56	0	0	0	0	12.1	87.9	11.9	0.56
3352	1026-3-3	Langevatnet	3352	1026-3-3	7.3663	58.8126	168.46	1736	25.69	2.13	8.2	0	0.6	0	1.5	89.7	1.3	0.5
3353	1026-3-18	Storevatnet	3353	1026-3-18	7.2289	58.7506	6.34	2111	18.2	2.14	0	0	0.2	0	44.1	55.7	33.8	2.91
3354	1026-3-19	Ljoslandsvatnet	3354	1026-3-19	7.3711	58.7536	259.56	1815	16.72	1.51	9.4	0.2	0.8	0	0.5	89.1	0.6	0.5
3355	1029-1-26	Vass?ervatnet	3355	1029-1-26	7.3929	58.0723	2.09	1672	3.54	0.04	87	2	1.5	0	2.5	7	1.9	0.5
3356	1032-2-4	Jovatnet	3356	1032-2-4	7.128	58.17	1.87	1663	8.33	0.21	37.5	0	3.4	0	7.5	51.6	11.2	0.56
3357	1032-2-13	Hagevatnet	3357	1032-2-13	7.087	58.1946	3.8	1766	7.6	0.11	24	0	2.9	0	2.9	70.2	2.9	0.5
3358	1034-1-4	Grantj?rni	3358	1034-1-4	7.1202	58.583	2.33	1882	5.61	0.07	5.7	0	8.8	0	3.1	82.4	3	0.5
3359	1034-2-7	Surtevatnet	3359	1034-2-7	7.1747	58.6044	7.13	2069	11.83	0.85	0	0	2.8	0	11.4	85.8	11.9	0.68
3360	1034-2-22	Bj?rnvatnet	3360	1034-2-22	7.2408	58.5706	1.87	2217	6.04	0.23	14.9	0	8.2	0	15.7	61.2	12.3	0.5
3361	1037-1-9	HOH 619	3361	1037-1-9	6.9745	58.726	6.01	2127	5.51	0.05	2.6	0	3.4	0	0.9	93.1	0.8	0.5
3362	1037-1-13	Husbrytj?rn	3362	1037-1-13	6.981	58.4368	0.79	1746	4.69	0.09	72.9	0	7.1	0	12.9	7.1	11.4	0.5
3363	1037-2-14	Hellartjern	3363	1037-2-14	7.039	58.7232	2.49	2182	4.9	0.13	0	0	0	0	5.7	94.3	5.2	0.5
3365	1046-1-8	Sm?j?rnan	3365	1046-1-8	6.803	58.6433	1.03	1847	2.37	0.07	1.2	0	4.7	0	7.9	86.2	6.8	0.5
3366	1046-1-11	HOH 573	3366	1046-1-11	6.7212	58.7803	4.05	2294	6.5	0.07	3.8	0	0	0	2.2	94	1.7	0.5
3367	1046-1-12	HOH 760	3367	1046-1-12	6.6395	58.807	0.39	2498	4.18	0.06	0	0	0	0	8.6	91.4	15.5	0.5
3368	1046-1-15	HOH 1041	3368	1046-1-15	6.6282	58.9393	0.24	2987	2	0.06	0	0	0	0	18.2	81.8	25.4	0.5
3369	1046-1-20	Litle Svartevatnet	3369	1046-1-20	6.4878	58.6566	4.5	2933	4.83	0.05	11.6	0	0	0	1.3	87.1	1.1	0.5
3370	1046-1-24	HOH 944	3370	1046-1-24	6.6701	58.9625	0.32	2787	8	0.09	0	0	0	0	27.3	72.7	28.3	0.81
3371	1046-1-29	Hyttevatnan	3371	1046-1-29	6.9197	58.7585	0.23	2251	5.06	0.06	0	0	0	0	11.6	88.4	25.6	0.58
3372	1046-1-30	HOH 739	3372	1046-1-30	6.5483	58.7847	8.69	2728	7.39	0.06	0	0	0	0	11.1	88.9	0.7	0.5
3373	1046-1-33	HOH 850	3373	1046-1-33	6.5917	58.857	0.84	2654	3.17	0.05	0	0	0	0	7.1	92.9	6	0.5
3374	1046-2-9	HOH 860	3374	1046-2-9	7.1018	58.941	8.71	1887	8.77	0.22	0	0	0	0	1.7	98.3	2.5	0.5
3375	1046-2-12	Indre Skeidsvatn	3375	1046-2-12	6.6512	58.7843	2.98	2434	13.11	0.24	0	0	0	0	7.1	92.9	8	0.5
3376	1046-2-15	Krokevatn	3376	1046-2-15	6.8968	58.8157	3.9	2230	11.75	0.22	0	0	0	0	5	95	5.6	0.5
3377	1046-2-17	?mundsvatnet	3377	1046-2-17	6.7973	58.6142	12.16	1877	6.79	0.78	1.7	0	6.5	0	10.1	81.7	6.4	0.5
3378	1046-2-21	Falketj?rnene	3378	1046-2-21	7.0472	58.937	6.99	2057	5.15	0.14	0	0	0	0	2.2	97.8	2	0.5
3379	1046-2-23	Vassfellet	3379	1046-2-23	6.8077	58.9951	3.06	2442	4.99	0.11	0	0	0	0	7.7	92.3	3.6	0.5
3380	1046-2-24	Fl?atnet	3380	1046-2-24	6.802	58.5821	1.25	2067	4.51	0.17	0.9	0	7.9	0	14	77.2	13.6	0.5
3381	1046-2-30	Avedalsvatnet	3381	1046-2-30	6.7689	58.6257	33.19	1787	2.59	0.17	13.1	0	2.1	0	0.5	84.3	0.5	0.5
3382	1046-3-9	Guddelvatnet	3382	1046-3-9	6.9021	58.7956	35.95	2195	14.09	1.46	0	0	0	0	5.8	94.2	4.1	0.5
3383	1046-3-15	Storavatnet	3383	1046-3-15	6.9702	58.8354	8.95	2011	9.64	1.09	0	0	0	0	13.4	86.6	12.2	0.58
3384	1046-3-17	Degjevatnet	3384	1046-3-17	6.7568	58.9547	62.84	2401	14.77	1.04	0	0	0	0	1.4	98.6	1.7	0.5
3385	1046-3-20	Bj?rnestadvatnet	3385	1046-3-20	6.6172	58.6621	19.62	2368	35.57	1.29	14.8	0	0	0	19.8	65.4	6.6	0.99
3386	1046-3-21	Langavatn	3386	1046-3-21	6.6287	58.8144	12.89	2425	11.89	1.13	0	0	0	0	3	97	8.8	0.5
3387	1101-3-8	Revsvatnet	3387	1101-3-8	6.1226	58.4677	7.71	1829	22.86	1.37	89.9	0.5	0.4	0	2.4	6.8	17.8	2.22
3388	1102-1-35	Auratj?rna	3388	1102-1-35	6.0514	58.8619	0.62	1848	11.28	0.09	7.7	0	0	0	11.5	80.8	14.5	0.88
3389	1102-2-14	Skjelbreidtj?rna	3389	1102-2-14	5.8617	58.8264	33.48	1532	7.63	0.53	5	7.4	1.3	0	13.9	72.4	1.6	0.5
3390	1111-1-1	?ygardstj?rna	3390	1111-1-1	6.4161	58.4215	0.51	2144	6.09	0.08	0	0	0	0	17	83	15.8	0.5
3391	1112-1-10	Saurtj?rni	3391	1112-1-10	6.307	58.5084	2.94	1952	12.44	0.07	2.5	0	2.5	0	2.5	92.5	2.4	0.5
3392	1112-2-7	Glessjor	3392	1112-2-7	6.3624	58.5392	8.93	2154	15.79	0.25	28.2	0	0.2	0	2.8	68.8	2.8	0.5
3393	1112-4-1	Lundevatnet	3393	1112-4-1	6.4756	58.3006	1889.64	2224	163.01	25.93	10	1	2.1	0	1.3	85.6	1.4	1.01
3394	1114-1-7	Hellevatnet	3394	1114-1-7	6.1249	58.623	1.47	2155	11.22	0.08	1.6	0	1.1	0	4.2	93.1	5.4	0.5
3395	1114-1-8	HOH 710	3395	1114-1-8	6.4605	58.7319	0.44	3069	6.95	0.05	0	0	0	0	13.3	86.7	11.4	0.5
3396	1114-1-21	Holatj?rni	3396	1114-1-21	6.4731	58.6765	0.3	2973	9.49	0.05	0	0	0	0	17.6	82.4	16.8	0.53
3397	1114-1-33	HOH 690	3397	1114-1-33	6.4608	58.6919	0.58	2974	4.76	0.06	0	0	0	0	6.4	93.6	10.4	0.5
3398	1114-2-4	HOH 712	3398	1114-2-4	6.6	58.7248	1.04	2784	7.28	0.13	0	0	0	0	5.2	94.8	12.4	0.5
3399	1114-2-25	Butj?rnane	3399	1114-2-25	5.9047	58.6138	4.95	2230	5.95	0.14	1.2	0	3.1	0	2.9	92.8	2.8	0.5
3400	1114-3-2	R?yslandsvatnet	3400	1114-3-2	5.9865	58.654	34.83	1969	15.03	1.15	18.2	1.8	1.7	0	3.2	75.1	3.3	0.5
3401	1114-3-4	Hofreist?atnet	3401	1114-3-4	6.1629	58.6682	255.57	2060	34.81	2.66	18.4	0.4	1.7	0	1.1	78.4	1	0.5
3402	1114-3-10	Indre Vinjavatnet	3402	1114-3-10	6.2193	58.7479	16.04	2291	36.37	1.08	6.8	0	1.3	0	7.4	84.5	6.7	1.07
3403	1119-1-25	Lauv?vatnet	3403	1119-1-25	5.8415	58.5171	0.84	1637	5.07	0.07	0	1.4	0	0	2	96.6	8.3	0.5
3404	1120-3-1	Horpestadvatnet	3404	1120-3-1	5.5558	58.7369	78.5	981	3.95	1.39	0	75.1	0	0	18.8	6.1	1.8	0.5
3405	1121-2-17	Snorestadtj?rnane	3405	1121-2-17	5.8361	58.6912	3.26	1762	5.6	0.11	0.3	0	2.2	0	3.5	94	3.4	0.5
3406	1122-1-2	HOH 850	3406	1122-1-2	6.5588	58.8456	0.43	2637	3.75	0.05	0	0	0	0	7.5	92.5	11.6	0.5
3407	1122-1-3	HOH 770	3407	1122-1-3	6.3299	58.8118	1.54	2712	4.3	0.06	0	0	0	0	7.5	92.5	3.9	0.5
3408	1122-1-4	Kalvedalsvatnet	3408	1122-1-4	6.3307	58.807	2.68	2712	8.88	0.1	0	0	0	0	6.8	93.2	3.7	0.5
3409	1122-1-12	Langatj?rn	3409	1122-1-12	6.5396	58.9136	0.94	2931	6.63	0.06	0	0	0	0	4.1	95.9	6.4	0.5
3410	1122-1-16	Kringlelitj?rna	3410	1122-1-16	5.9315	58.7183	2.69	1493	6.23	0.07	26.2	0	2.2	0	2.6	69	2.6	0.5
3411	1122-1-31	Langavatn	3411	1122-1-31	6.1951	58.8006	0.71	2604	4.91	0.1	0	0	0	0	21.6	78.4	14.1	0.5
3412	1122-2-2	HOH 941	3412	1122-2-2	6.5477	58.8959	1.28	2988	7.27	0.11	0	0	0	0	12.7	87.3	8.6	0.5
3413	1122-2-18	?vre Bergsvatnet	3413	1122-2-18	5.9544	58.8037	0.64	1794	8.84	0.13	7.1	0	0	0	18.6	74.3	20.4	1.01
3415	1129-1-15	Reinstj?rn	3415	1129-1-15	6.8549	59.1303	0.42	2230	7.71	0.08	0	0	0	0	13.1	86.9	19	0.66
3416	1129-1-23	HOH 1102	3416	1129-1-23	6.7665	59.1247	0.87	2823	8.75	0.1	0	0	0	0	10.2	89.8	11.5	0.5
3417	1129-1-28	Kleggadalsvatn	3417	1129-1-28	6.6746	59.1599	5.22	2720	12.61	0.08	0	0	0	0	1.9	98.1	1.5	0.5
3418	1129-1-32	Tj?rna	3418	1129-1-32	6.1836	58.9031	3.73	1688	2.86	0.07	6.3	4.7	2.1	0	1.1	85.8	1.9	0.5
3419	1129-1-36	HOH 1080	3419	1129-1-36	6.8029	59.1726	0.82	2998	5.62	0.08	0	0	0	0	7.7	92.3	9.7	0.5
3420	1129-2-3	S?re Erevikvatnet	3420	1129-2-3	6.0598	58.9271	2.41	1398	6.43	0.14	62.4	4.8	0	0	4.6	28.2	5.8	0.5
3421	1129-2-9	HOH 967	3421	1129-2-9	6.7283	59.163	0.77	3017	6.23	0.02	0	0	0	0	24.5	75.5	2.6	0.5
3422	1129-2-11	Troppevatnet	3422	1129-2-11	6.178	59.0006	2.1	2315	16.53	0.35	39	0	0.5	0	17.5	43	16.7	1.19
3423	1129-2-12	HOH 1029	3423	1129-2-12	6.7149	59.1546	0.37	3208	11.5	0.11	0	0	0	0	33.3	66.7	29.9	1.07
3424	1129-2-15	Vongsatj?rnane	3424	1129-2-15	6.4028	59.0731	0.42	2468	9.55	0.12	0	0	0	0	25	75	28.4	1.1
3425	1129-2-28	Rundatj?rna	3425	1129-2-28	6.3691	59.064	0.99	2486	12.18	0.11	0	0	0	0	17.2	82.8	11.1	0.55
3426	1129-2-53	Svartavatnet	3426	1129-2-53	6.4123	58.9756	2.24	2874	10.15	0.18	0	0	0	0	7.3	92.7	8.1	0.5
3427	1129-3-15	Haukalivatnet	3427	1129-3-15	6.1743	58.9293	13.51	1796	44.95	1.63	35.5	1.1	0.8	0	12.3	50.3	12.1	3.02
3428	1130-3-14	Vostervatnet	3428	1130-3-14	6.0012	59.1064	11.3	1667	21.04	2.62	57.9	0	0.5	0	27.1	14.5	23.2	2.93
3429	1133-1-18	HOH 920	3429	1133-1-18	6.5167	59.1755	0.97	3026	2.96	0.04	0	0	0	0	3.8	96.2	4.1	0.5
3430	1133-1-24	Eikelivatnet	3430	1133-1-24	6.3402	59.2531	0.58	2263	16.89	0.08	78.2	0	0	0	21.8	0	13.9	1.04
3431	1133-1-30	HOH 1080	3431	1133-1-30	6.7393	59.3136	0.23	2880	3.77	0.05	0	0	0	0	11.5	88.5	22.1	0.5
3432	1133-2-1	Heimra Svartavatnet	3432	1133-2-1	6.5301	59.3371	6.01	2598	26.33	0.23	9.2	0	0	0	3.8	87	3.8	0.5
3433	1133-2-16	Holmavatnet	3433	1133-2-16	6.674	59.2538	3.28	2511	13.15	0.23	0	0	0	0	22	78	7	0.5
3434	1133-2-23	HOH 1111	3434	1133-2-23	6.8081	59.221	9.79	2849	11.08	0.15	0	0	0	0	2.1	97.9	1.5	0.5
3435	1133-2-29	Brokavatnet	3435	1133-2-29	6.2293	59.0756	0.87	3063	13.03	0.22	0	0	0	0	17.4	82.6	25.2	1.07
3436	1133-2-603	?.Tysdalsvatn	3436	1133-2-603	6.2587	59.1377	154.73	2201	85.93	8.98	5.8	0.1	1.3	0	5.8	87	5.8	2.27
3437	1134-1-27	HOH 1250	3437	1134-1-27	6.9309	59.557	0.87	2538	8	0.06	0	0	0	0	11.1	88.9	6.9	0.5
3438	1134-2-8	Leird?svatna	3438	1134-2-8	6.9462	59.4904	34.71	2818	9.71	0.58	0	0	0	0	13.8	86.2	1.7	0.5
3439	1134-2-24	Heimsvatnet	3439	1134-2-24	6.3083	59.4527	7.69	2846	12.81	0.47	55.2	0	0.4	0	6.2	38.2	6.1	0.5
3440	1134-3-6	Kald?atn	3440	1134-3-6	6.7982	59.4732	15.41	3055	22.67	1.26	0	0	0	0	9.7	90.3	8.2	0.61
3441	1135-1-19	HOH 666	3441	1135-1-19	6.5634	59.7216	12.19	2498	6.64	0.07	1.3	0	0	0	5.3	93.4	0.6	0.5
3442	1135-2-10	L?yndardalsvatnet	3442	1135-2-10	6.3586	59.7521	5.59	3571	9.02	0.19	0	0	0.4	0	3.4	96.2	3.4	0.5
3443	1135-2-13	S?re Dyrskardsvatnet	3443	1135-2-13	6.5952	59.8292	1.54	3469	12.49	0.19	0	0	0	0	13.2	86.8	12.3	0.5
3444	1135-3-3	F?rstadvatnet	3444	1135-3-3	6.5612	59.6948	74.73	2921	20.84	1.56	15.9	0	0	0	23.8	60.3	2.1	0.5
3445	1146-1-5	Bongsatj?rna	3445	1146-1-5	5.4387	59.4196	0.19	1537	3.78	0.05	0	0	5	0	12.5	82.5	26.7	0.66
3446	1146-1-26	Lauvskardvatnet	3446	1146-1-26	5.7213	59.3593	0.65	2173	4.79	0.07	32.9	0	0	0	10	57.1	10.8	0.5
3447	1146-2-6	?navatnet	3447	1146-2-6	5.4309	59.3636	1.15	1514	7.07	0.24	0	0	4.6	0	22.2	73.2	20.9	0.98
3448	1146-2-19	Vadvatnet	3448	1146-2-19	5.4412	59.3091	0.95	1403	2.76	0.14	3	0	4	0	14	79	14.8	0.5
3449	1146-2-22	G?avatnet	3449	1146-2-22	5.5691	59.3843	2.07	1855	6.45	0.25	72.7	0	0.5	0	12.2	14.6	12.1	0.5
3450	1149-1-6	Steinsvatnet	3450	1149-1-6	5.3611	59.3037	0.3	1476	3.95	0.07	0	0	9.1	0	31.8	59.1	23.7	0.63
3451	1149-2-26	Heiavatnet	3451	1149-2-26	5.2231	59.2719	0.57	1448	2.29	0.12	0	0	4.6	0	18.5	76.9	20.9	0.5
3452	1154-3-9	Gjerdesdalsvatnet	3452	1154-3-9	5.7969	59.5164	14.75	2710	21.37	1.64	44.2	0	1	0	11	43.8	11.1	0.88
3453	1154-3-16	Fjellgardsvatnet	3453	1154-3-16	5.9987	59.5552	67.27	3352	42.66	2.11	17.4	0.2	0.8	0	3.2	78.4	3.1	0.5
3454	1201-1-36	Storavatnet	3454	1201-1-36	5.3005	60.2342	0.63	1988	8.7	0.07	39.7	0	8.6	0	12.1	39.6	11.2	0.5
3455	1201-1-45	Stemmevatnet	3455	1201-1-45	5.4399	60.4431	0.44	2971	4.98	0.07	82	0	0	0	14	4	15.9	0.5
3456	1211-1-11	Vierdalsvatnet (Sk?nesv.)	3456	1211-1-11	6.2929	59.8156	0.82	3493	5.75	0.06	0	0	0	0	7.5	92.5	7.3	0.5
3457	1211-1-26	HOH 914	3457	1211-1-26	6.489	59.8304	2.86	3766	3.42	0.04	0	0	0	0	1.1	98.9	1.4	0.5
3458	1216-2-12	Krossvikevatnet	3458	1216-2-12	5.4247	59.5416	1.54	1579	5.09	0.12	4.1	0	7.4	0	8.8	79.7	7.8	0.5
3459	1216-2-13	Mannavatnet	3459	1216-2-13	5.3673	59.545	0.99	1576	3.28	0.19	0	0	7.8	0	21.1	71.1	19.2	0.5
3460	1216-3-5	Vigdarvatnet	3460	1216-3-5	5.4413	59.5119	89.46	1605	19.79	7.56	5.2	0	26	0	7.9	60.9	8.5	1.04
3461	1216-3-11	Storavatnet	3461	1216-3-11	5.3397	59.5973	14.74	1735	10.59	1.01	4.3	0	3.6	0	7.2	84.9	6.9	0.5
3462	1219-1-2	Grindavatnet	3462	1219-1-2	5.1872	59.7863	1.86	1752	2.81	0.05	6.8	0	5.1	0	4.2	83.9	2.7	0.5
3463	1219-1-22	Stemmevatnet	3463	1219-1-22	5.1949	59.6819	0.22	1764	4.17	0.05	73.9	0	0	0	17.4	8.7	23	0.54
3464	1219-1-29	Eriksvatnet	3464	1219-1-29	5.1635	59.6618	1.52	1838	4.65	0.06	2	0	2.7	0	4.1	91.2	3.9	0.5
3465	1223-1-40	Vermedalsvatnet	3465	1223-1-40	5.558	59.98	3.39	2588	6.85	0.05	74	0	1.1	0	1.1	23.8	1.5	0.5
3466	1223-2-37	Skartveitvatnet	3466	1223-2-37	5.5974	59.9752	15.32	2586	8.47	0.16	22.9	0	2	0	0.7	74.4	1	0.5
3467	1224-1-31	Hammarsvatnet	3467	1224-1-31	6.1963	60.1285	0.21	2582	3.65	0.04	9.1	0	9.1	0	18.2	63.6	18.7	0.5
3468	1224-2-14	HOH 1051	3468	1224-2-14	6.1753	59.9422	0.57	3927	8.48	0.15	0	0	0	0	22.1	77.9	26.2	0.57
3469	1224-2-25	Mannsvatnet	3469	1224-2-25	5.9279	59.9247	5.38	2920	16.02	0.56	0	0	1	0	11	88	10.4	0.57
3470	1224-2-26	Sandvatna	3470	1224-2-26	6.1236	59.8656	4.63	3750	12.85	0.22	0	0	0	0	4.8	95.2	4.8	0.5
3471	1224-2-30	Insta Bukkaspelvatnet	3471	1224-2-30	6.3923	60.1531	1.74	4198	9.97	0.19	0	0	0	0	10.4	89.6	10.9	0.5
3472	1224-2-39	Tveitedalsvatnet	3472	1224-2-39	6.2116	60.0788	3	3091	17.8	0.29	0	0	0	1.7	10	88.3	9.7	0.56
3473	1224-3-12	Myrdalsvatnet	3473	1224-3-12	6.0632	60.0249	20.47	2575	30.32	1.64	20.9	0	0	2.4	8	68.7	8	0.94
3474	1228-1-12	HOH 1365	3474	1228-1-12	6.8214	60.0289	0.32	2903	4.88	0.05	0	0	0	0	13.3	86.7	15.5	0.5
3475	1228-1-13	HOH 1264	3475	1228-1-13	7.0597	59.9786	4.32	2550	1.31	0.04	0	0	0	0	1	99	0.9	0.5
3476	1228-1-21	Litlavatn	3476	1228-1-21	6.8508	59.887	3.27	2661	4.61	0.07	0	0	0	0	4.7	95.3	2.1	0.5
3477	1228-1-42	HOH 1166	3477	1228-1-42	6.4918	59.9994	0.28	2709	4.64	0.04	0	0	0	0	18.2	81.8	14.3	0.5
3478	1228-2-9	HOH 1110	3478	1228-2-9	6.6341	59.8444	4.81	3302	4.06	0.11	0	0	0	0	11	89	2.3	0.5
3479	1228-3-4	Kaldevatn	3479	1228-3-4	7.0093	59.8093	14.69	2855	18.24	1.9	0	0	0	0.4	13.6	86	12.9	0.83
3480	1228-3-8	Reinsnesvatnet	3480	1228-3-8	6.6607	59.9463	120.01	1884	37.54	3.09	6.2	0	0.8	1.2	2.9	88.9	2.6	0.51
3482	1231-1-7	HOH 1342	3482	1231-1-7	7.4698	60.104	0.43	1057	4.07	0.07	0	0	0	0	17	83	16.1	0.62
3483	1231-1-9	HOH 1274	3483	1231-1-9	7.3249	60.0615	0.34	1232	1.82	0.08	0	0	0	0	25	75	23.3	0.5
3484	1231-1-14	HOH 1253	3484	1231-1-14	6.9614	60.2642	0.31	1604	3.67	0.04	0	0	0	0	13.3	86.7	12.8	0.5
3485	1231-2-2	Kj?lo	3485	1231-2-2	6.882	60.2537	19.78	1834	3.48	0.17	0	0	0.1	4.9	0.9	94.1	0.9	0.5
3486	1231-2-7	HOH 1348	3486	1231-2-7	7.1687	60.1903	0.65	1365	4.73	0.11	0	0	0	0	13.7	86.3	17	0.59
3487	1231-2-24	Trollavatnet	3487	1231-2-24	6.9142	60.3255	6.75	1738	7.61	0.21	0	0	0.3	0	3.2	96.5	3.1	0.5
3488	1231-3-20	Litlos	3488	1231-3-20	7.1678	60.073	61.31	1574	10.05	1.51	0	0	0.2	0	2.5	97.3	2.5	0.5
3489	1232-1-3	HOH 1200	3489	1232-1-3	7.6228	60.4588	2.35	1589	3.55	0.08	0	0	0	0	3.6	96.4	3.4	0.5
3490	1232-1-4	HOH 1324	3490	1232-1-4	7.3639	60.127	1.4	1167	3.96	0.07	0	0	0	0	4.1	95.9	5	0.5
3491	1232-1-37	HOH 1360	3491	1232-1-37	7.5274	60.4784	0.43	2056	3.92	0.04	0	0	0	0	7.7	92.3	9.3	0.5
3492	1232-2-1	Inste Olavsbuvatni	3492	1232-2-1	7.6341	60.4301	2.53	1329	5.94	0.65	0	0	0.2	0	6.6	93.2	25.7	1.15
3493	1232-3-18	Nordvatnet	3493	1232-3-18	7.4041	60.2262	32.65	1116	3.33	1.07	0	0	1.5	0	3.3	95.2	3.3	0.5
3494	1233-1-10	HOH 1240	3494	1233-1-10	7.2882	60.6002	3.7	2345	1.88	0.05	0	0	0	0	1.5	98.5	1.4	0.5
3495	1233-2-15	HOH 1232	3495	1233-2-15	7.3733	60.652	23.39	2318	8.41	0.26	0	0	0	2.4	1.1	96.5	1.1	0.5
3496	1233-2-27	Kvannjolvatnet	3496	1233-2-27	6.9902	60.6492	13.89	2562	18.22	0.54	0	0	0	0	3.8	96.2	3.9	0.5
3497	1233-2-31	HOH 1410	3497	1233-2-31	7.4415	60.6576	4.07	2040	9	0.25	0	0	0	7	5.8	87.2	6.1	0.5
3498	1234-3-2	Granvinvatnet	3498	1234-3-2	6.7299	60.5353	140.46	1879	40.19	4.05	52.1	0	1.7	0	2.7	43.5	2.9	0.62
3499	1235-1-8	HOH 1241	3499	1235-1-8	6.3403	60.5491	1.21	2891	3.8	0.09	0	0	0	0	10.2	89.8	7.4	0.5
3500	1235-1-30	HOH 1056	3500	1235-1-30	6.3652	60.7338	1.98	2698	10.05	0.1	0	0	0	1.7	5	93.3	5	0.5
3501	1235-2-32	HOH 1167	3501	1235-2-32	6.3263	60.5123	4.27	3410	8.47	0.14	0	0	0	0.6	3.3	96.1	3.3	0.5
3502	1235-2-38	Gr?nlivatnet	3502	1235-2-38	6.5907	60.5627	13.26	2022	15.59	0.61	0	0	0	0.5	3.4	96.1	4.6	0.5
3503	1235-3-14	Storavatnet	3503	1235-3-14	6.3827	60.4906	9.83	3379	23.63	1.7	0	0	0	0.1	17.9	82	17.3	1.21
3504	1238-2-23	?yjordsvatnet	3504	1238-2-23	6.1197	60.2653	3.58	2595	6.31	0.13	81.1	0	1.1	0	3.4	14.4	3.6	0.5
3505	1238-2-42	Djupebottvatnet	3505	1238-2-42	6.3555	60.4913	6.23	3458	15.51	0.15	0	0	0	1.3	2.5	96.2	2.4	0.5
3506	1238-3-15	Myklavatnet	3506	1238-3-15	6.0912	60.4078	11.31	3468	27.59	1.8	0	0	0	0	16.4	83.6	15.9	1.27
3507	1241-1-18	Svinasteinstj?rna	3507	1241-1-18	5.7694	60.1343	0.33	3369	13.15	0.05	80	0	0	0	16.7	3.3	15.3	0.6
3508	1241-2-41	Skjelbreidvatnet	3508	1241-2-41	5.7713	60.2451	41.5	2708	31.67	0.9	21.8	0	0.4	0	2.2	75.6	2.2	0.5
3509	1242-2-3	Fiskevatnet	3509	1242-2-3	5.81	60.4186	121.46	2877	11.34	0.14	32.8	0	1.1	0	1.6	64.5	0.1	0.5
3510	1246-1-15	Kvernavatnet	3510	1246-1-15	5.0054	60.4383	0.28	1915	6.14	0.05	0	0	4	0	20	76	17.6	0.56
3511	1251-1-1	Tj?rnadalsvatnet	3511	1251-1-1	5.9216	60.5319	1.27	4369	6.89	0.06	0	0	0	0	5	95	4.7	0.5
3512	1252-2-8	HOH 1019	3512	1252-2-8	6.0443	61.0061	3.62	3435	16.75	0.35	0	0	0	0	11.3	88.7	9.7	0.5
3513	1252-2-21	Nedre S?rdalsvatnet	3513	1252-2-21	6.0896	60.9596	7.59	3152	20.76	0.44	0.5	0	0.1	0	5.6	93.8	5.8	0.5
3514	1256-3-13	Storavatnet	3514	1256-3-13	5.1007	60.5594	18.32	2017	15.65	3.14	83.4	0.6	0	0	14.8	1.2	17.1	1.33
3515	1260-2-20	F?evatnet	3515	1260-2-20	4.9653	60.7055	2.45	1984	6.12	0.14	43.2	0	7.7	0	6.4	42.7	5.7	0.5
3516	1260-2-28	Kvalheimsvatnet	3516	1260-2-28	4.9465	60.6835	3.5	1942	6.91	0.18	5.5	0	21.2	0	5.5	67.8	5.1	0.5
3517	1263-2-33	Hundvensvatnet	3517	1263-2-33	5.2508	60.6632	2.57	2151	6.88	0.26	43	0	2.6	0	11.4	43	10.1	0.5
3518	1263-2-36	Sandvikavatnet	3518	1263-2-36	5.3612	60.6093	2.09	2381	13.17	0.46	70	0	0.5	0	24.2	5.3	22	1.22
3519	1266-1-24	HOH 800	3519	1266-1-24	5.7991	60.9235	4.21	4228	11.24	0.06	0	0	0	0	1.4	98.6	1.4	0.5
3520	1266-2-6	Nordrevotni	3520	1266-2-6	5.711	60.9258	2.12	3611	5.83	0.16	0	0	0	0	7.6	92.4	7.6	0.5
3521	1266-2-10	Svadfjellvatni	3521	1266-2-10	5.7881	60.9788	2.03	3487	19.61	0.15	0	0	0	0	7.1	92.9	7.4	0.5
3522	1266-2-11	Harekupvatnet	3522	1266-2-11	5.8376	60.9225	1	4400	13.42	0.13	0	0	0	0	13	87	13	0.5
3523	1266-2-35	Klefjellvatni	3523	1266-2-35	5.4744	60.7549	1.18	4888	23.24	0.17	4.8	0	0	0	16.3	78.9	14.5	0.69
3524	1401-1-8	Urdavatnet	3524	1401-1-8	5.0101	61.6526	9.21	2340	3.85	0.1	37.8	0	0.2	0	1.2	60.8	1.1	0.5
3525	1401-1-27	HOH 530	3525	1401-1-27	5.3006	61.6628	0.7	4760	2.91	0.05	0	0	0	0	5.7	94.3	7.1	0.5
3526	1411-1-10	Maletj?rna	3526	1411-1-10	5.0883	60.9251	1.58	3026	6.56	0.04	55	0	0	0	20	25	2.5	0.5
3527	1412-1-9	Gardavatnet	3527	1412-1-9	4.6957	61.0292	0.27	2079	4.88	0.08	0	0	0	0	34.8	65.2	30	0.7
3528	1412-1-19	Krokevatnet	3528	1412-1-19	4.7864	61.0663	0.4	2185	7.37	0.09	0	0	0	0	25	75	22.5	0.76
3529	1412-2-7	Engevikvatnet	3529	1412-2-7	4.9658	61.1655	6.06	2048	16.33	0.71	7.6	0	2.9	0	10.8	78.7	11.7	0.93
3530	1413-1-33	G?evatnet	3530	1413-1-33	5.3258	61.1727	0.52	2588	4.19	0.06	54	0	4.8	0	9.5	31.7	11.6	0.5
3531	1416-1-3	Tirskardvatnet	3531	1416-1-3	5.8412	61.1965	0.31	3136	7.09	0.06	13.3	0	0	0	20	66.7	19.3	0.5
3532	1416-1-21	Dyttingane	3532	1416-1-21	5.9239	61.0982	1.7	2326	1.93	0.06	0	0	2.7	0	3.2	94.1	3.5	0.5
3533	1416-2-27	HOH 761	3533	1416-2-27	5.8322	60.9979	2.83	3252	5.67	0.14	0	0	0	0	4.8	95.2	4.9	0.5
3534	1416-2-28	HOH 729	3534	1416-2-28	5.6547	60.9936	0.65	3477	5.35	0.1	0	0	0	0	14.3	85.7	15.4	0.5
3535	1417-1-29	HOH 1171	3535	1417-1-29	6.5311	60.9382	2.16	2248	4.76	0.07	0	0	0	0	3.2	96.8	3.2	0.5
3536	1420-1-1	Kollsetervatnet	3536	1420-1-1	6.9603	61.2749	0.61	1954	3.4	0.04	0	0	0	0	8.3	91.7	6.6	0.5
3537	1420-2-12	Storavatnet	3537	1420-2-12	6.9411	61.2561	1.87	1997	2.89	0.14	0	0	2.96	0	0	97.04	7.5	0.5
3538	1420-3-20	Dalavatnet	3538	1420-3-20	7.0055	61.298	111.46	1884	15.33	2.34	23.6	0	0.4	2.4	2.1	71.5	2.1	0.5
3539	1421-1-11	HOH 1036	3539	1421-1-11	6.9135	60.8896	2.84	2247	2.66	0.04	0	0	0	1.4	1.6	97	1.4	0.5
3541	1421-1-26	?vre Leitevatnet	3541	1421-1-26	7.3963	60.9339	1.3	1407	3.27	0.07	0	0	0	0	6.4	93.6	5.4	0.5
3542	1421-2-15	?v.Sleip?otni	3542	1421-2-15	7.5895	60.8577	1.12	1847	6.89	0.17	0	0	0	0	15.5	84.5	15.2	0.57
3543	1421-2-31	Sleip?otni	3543	1421-2-31	7.5588	60.8523	9.82	1869	7.71	0.4	0	0	0	0	4.7	95.3	4.1	0.5
3544	1421-3-13	Store Liavatnet	3544	1421-3-13	7.5952	60.8663	8.93	1797	16.17	2.87	0	0	0	0	0	100	32.2	2.89
3545	1421-3-24	HOH 1455	3545	1421-3-24	7.413	60.6854	10.95	2092	10.66	1.5	0	0	0	4	13.4	82.6	13.7	0.7
3546	1421-3-26	Norddalsvatnet	3546	1421-3-26	7.4305	60.9513	5.58	1448	8.87	1.08	0	0	0	0	17.5	82.5	19.3	1.18
3547	1421-3-30	Hednedalsvatnet	3547	1421-3-30	7.373	60.7371	21.47	2285	10.13	1.11	0	0	0	0.4	5.6	94	5.2	0.5
3548	1422-1-2	HOH 1539	3548	1422-1-2	7.7796	60.9764	0.46	1002	4.27	0.06	0	0	0	0	14.3	85.7	13.1	0.56
3549	1422-1-4	Fossavotni	3549	1422-1-4	7.4797	60.9816	5.61	1360	5.75	0.06	0	0	0	0	1.1	98.9	1.1	0.5
3550	1422-2-19	Langetj?rnane	3550	1422-2-19	7.8643	61.1521	3.22	1362	11.36	0.33	0	0	0	0	10.6	89.4	10.3	0.86
3551	1422-2-25	[r?stj?rni	3551	1422-2-25	7.929	61.0469	0.93	907	6.79	0.11	0	0	0	0	11.2	88.8	11.8	0.89
3552	1422-3-18	Starsj?en	3552	1422-3-18	8.0194	60.9608	9.72	1056	12.19	1.91	0	0	0.4	0	19.7	79.9	19.7	2.27
3553	1424-1-12	Fjellvatnet	3553	1424-1-12	7.6169	61.1504	2.54	1299	6.85	0.09	0	0	0	0	3.6	96.4	3.5	0.5
3554	1424-1-14	Reinsgravtj?rni	3554	1424-1-14	7.7957	61.1313	1.07	1226	5.58	0.08	0	0	0	0	4.1	95.9	7.5	0.5
3555	1424-2-11	HOH 1430	3555	1424-2-11	7.6553	61.4038	1.41	1547	2.16	0.12	0	0	0	0	7.5	92.5	8.5	0.5
3556	1424-2-30	Hyttedalsvatnet	3556	1424-2-30	7.6419	61.4284	2.24	1751	15.99	0.23	0	0	0	0	11.5	88.5	10.3	0.94
3557	1426-1-6	HOH 1335	3557	1426-1-6	7.6745	61.4511	0.32	1659	7.32	0.06	0	0	0	0	8.6	91.4	18.7	0.83
3558	1426-1-22	HOH 1475	3558	1426-1-22	7.4358	61.7019	0.32	1871	5.2	0.05	0	0	0	0	16.7	83.3	15.6	0.5
3559	1426-1-23	R?ykjedalsvatnet	3559	1426-1-23	7.1654	61.6043	3.44	2904	1.78	0.09	0	0	0	15.2	2.7	82.1	2.6	0.5
3560	1426-2-13	HOH 1488	3560	1426-2-13	8.2901	61.4346	3.04	1486	8	0.27	0	0	0	0	8.2	91.8	8.9	0.5
3561	1426-2-22	Ned.Mj?lkedalstj?rn	3561	1426-2-22	8.2183	61.4619	7.3	1652	12.48	0.61	0	0	0	0.8	7.9	91.3	8.4	0.63
3562	1426-3-19	?etvatnet	3562	1426-3-19	7.5837	61.5505	29.85	1557	30.51	1.74	0	0	0.3	6.2	5.6	87.9	5.8	1.14
3563	1428-1-18	Tobbedalsvatnet	3563	1428-1-18	5.4668	61.4255	0.57	3613	6.95	0.06	0	0	0	0	9.5	90.5	10.5	0.5
3564	1428-2-32	S?revatnet	3564	1428-2-32	4.9596	61.3242	5.08	2177	16.41	0.27	1.4	0	0.2	0	5.2	93.2	5.3	0.5
3565	1428-3-7	H?landsvatnet	3565	1428-3-7	4.9117	61.3609	10.14	2269	18.26	1.36	9.4	0	0.6	0	13.4	76.6	13.4	1.08
3566	1429-2-10	Botnatj?rna	3566	1429-2-10	5.3349	61.294	1.6	3027	8.4	0.25	84.6	0	2.1	0	13.3	0	15.6	0.5
3567	1430-1-13	Jakobsvatnet	3567	1430-1-13	5.9374	61.2891	0.46	3821	5.51	0.07	0	0	0	0	15.6	84.4	15.2	0.5
3568	1430-1-65	HOH 520	3568	1430-1-65	5.8739	61.3577	0.22	2492	3.34	0.02	0	0	6.3	0	9.4	84.3	9	0.5
3569	1431-2-5	Gjesdalsvatnet	3569	1431-2-5	6.2201	61.4671	2.7	2572	11.43	0.21	0	0	0	0	12.9	87.1	7.8	0.5
3570	1431-2-26	HOH 1308	3570	1431-2-26	6.6613	61.541	1.45	4052	11.86	0.15	0	0	0	53.8	5.8	40.4	10.4	0.5
3571	1431-2-35	H?eimsvatnet	3571	1431-2-35	6.5117	61.5957	26.92	2217	8.1	0.25	15.4	0	0	3.5	0.7	80.4	0.9	0.5
3573	1431-4-6	J?lstravatnet	3573	1431-4-6	6.1131	61.4923	383.35	2811	90.36	39.01	18.2	3.5	1.8	6.4	10.4	59.7	10.2	3.27
3574	1432-1-7	Nordvatnet	3574	1432-1-7	6.1228	61.5704	1.58	3494	15.13	0.07	0	0	0	0	4.7	95.3	4.4	0.5
3575	1432-1-25	Ness-Isvatnet	3575	1432-1-25	6.3205	61.4346	1.2	2320	10.7	0.06	0	0	0	0	5.7	94.3	5	0.5
3577	1432-3-15	Gjerlands-Isvatnet	3577	1432-3-15	6.3281	61.4452	8.53	2371	46.43	1.94	0	0	0	0	24.3	75.7	22.7	4.45
3578	1433-1-37	Svartevatnet	3578	1433-1-37	5.6908	61.5519	0.83	2917	6.05	0.06	0	0	1	0	6	93	7.2	0.5
3579	1433-3-23	Trodalsvatnet	3579	1433-3-23	5.9673	61.5573	6.88	3291	34.98	1.2	15.9	0	0.9	0	17.4	65.8	17.4	1.85
3580	1438-2-23	L. Sn?nykevatnet	3580	1438-2-23	5.5657	61.7805	1.48	4073	22.72	0.45	0	0	0	3.4	32.4	64.2	30.3	1.69
3581	1438-2-59	S?rdalsvatnet	3581	1438-2-59	5.024	61.7071	3.34	2668	16.95	0.19	2.9	0	0	0	5.6	91.5	5.7	0.5
3582	1438-3-1	Handklevatnet	3582	1438-3-1	5.2482	61.6784	8.8	4150	34.18	1.08	0	0	0	0	12.7	87.3	12.3	1.01
3583	1441-3-29	Dalsb?vatnet	3583	1441-3-29	5.1685	62.1614	21.22	2102	18.39	1.08	1.4	0	0.6	0	5.3	92.7	5.1	0.5
3584	1443-1-40	Byrjevatnet	3584	1443-1-40	6.1849	62.0038	1.45	2469	6.08	0.05	37.5	0	2.5	0	3.1	56.9	3.5	0.5
3585	1445-2-3	Vardevatnet	3585	1445-2-3	6.2737	61.7207	1.72	2346	8.96	0.15	0	0	0	7.5	10.9	81.6	8.7	0.5
3586	1445-2-8	Skjerdalsvatnet	3586	1445-2-8	5.9292	61.8062	16.35	4315	8.65	0.27	7.7	0	0.2	30.1	1.7	60.3	1.7	0.5
3587	1445-2-9	Bl?alsvatnet	3587	1445-2-9	6.3341	61.6589	2.59	2506	17.07	0.16	0	0	0	13.6	5.4	81	6.2	0.5
3588	1445-2-21	Traudalsvatnet	3588	1445-2-21	6.0878	61.7574	21.6	2929	12.15	0.64	3.4	0	0	0	0	96.6	3	0.5
3589	1449-4-2	Lovatnet	3589	1449-4-2	6.8892	61.86	233.87	1614	74.57	10.49	10.9	0	0	31.7	4.6	52.8	4.5	2.07
3590	1502-1-25	?setvatn	3590	1502-1-25	7.5286	62.7266	6.88	1778	1.26	0.08	77.5	0	3.3	0	12.5	6.7	1.2	0.5
3591	1504-1-13	Svartevatnet	3591	1504-1-13	6.5411	62.457	0.65	2035	4.41	0.05	10.3	0	2.6	0	6.4	80.7	7.7	0.5
3592	1511-1-7	Vassdalsvatnet	3592	1511-1-7	5.6755	62.0211	0.33	2883	12.32	0.09	0	0	0	0	30	70	27.2	1.16
3593	1511-3-13	Myrkevatnet	3593	1511-3-13	5.82	62.1341	2.72	2887	29.02	1.04	0	0	0	0	35.9	64.1	38.2	3.84
3594	1519-3-10	Rotevatnet	3594	1519-3-10	6.0939	62.1442	30.53	1907	19.19	1.41	77.4	2.7	1.2	0	5	13.7	4.6	0.5
3595	1520-1-5	Urdvatn	3595	1520-1-5	6.746	62.1474	14.14	2178	4.04	0.07	5.4	0	0	0	1.9	92.7	0.5	0.5
3596	1524-2-17	Gullakoppen	3596	1524-2-17	7.2854	62.335	1.55	1722	19.56	0.18	0	0	0	0	12.2	87.8	11.6	1.32
3597	1525-1-12	Nykkjevatn	3597	1525-1-12	6.9185	62.1355	0.81	1594	14.7	0.1	0	0	0	0	12.2	87.8	12.4	1.14
3598	1525-2-601	H.Vester>svatn	3598	1525-2-601	7.3028	62.1218	6.77	2223	27.15	0.48	0	0	0	19.2	7.1	73.7	7.1	0.87
3599	1525-3-7	Vatnedalsvatnet	3599	1525-3-7	6.9031	62.0156	9.26	2171	33.01	1.45	0	0	0	0	16.6	83.4	15.7	2.38
3600	1526-2-13	Litlevatnet	3600	1526-2-13	7.3209	62.4349	3.29	2025	10.33	0.23	13.3	0	0.7	0	7.7	78.3	7	0.5
3601	1529-3-5	Engsetvatnet	3601	1529-3-5	6.6181	62.5313	40.24	1697	20.18	4.36	77.6	1.9	0.5	0	8.4	11.6	10.8	1.29
3602	1535-2-10	S. Oterskarvatn	3602	1535-2-10	6.8562	62.5841	0.87	2135	10.35	0.1	75	0	1.1	0	11.4	12.5	11.5	0.56
3603	1539-1-1	HOH 1060	3603	1539-1-1	8.0239	62.5186	0.63	1735	7.5	0.06	0	0	0	0	8.5	91.5	9.5	0.5
3604	1539-1-3	Kalkdh?tj?rni	3604	1539-1-3	8.1613	62.3636	4.92	1160	10	0.28	0	0	0	0	6.4	93.6	5.7	0.5
3605	1539-2-6	?spevatn	3605	1539-2-6	7.2551	62.5065	1.8	2538	8.97	0.17	0	0	0	2.3	9.7	88	9.4	0.5
3606	1539-2-11	Kr?enesvatna	3606	1539-2-11	7.7865	62.4454	6.58	1529	3.65	0.15	0	0	0	0	13.9	86.1	2.3	0.5
3607	1543-1-2	Klappvatn	3607	1543-1-2	8.0589	62.7977	1.46	1694	2.63	0.05	15.4	0	70.8	0	13.8	0	3.4	0.5
3608	1543-2-7	Nordre Isl?yptj?rna	3608	1543-2-7	8.3172	62.3597	5.94	1385	12.41	0.21	0	0	0	5.3	3.5	91.2	3.5	0.5
3609	1563-1-4	Meskardvatnet	3609	1563-1-4	8.9338	62.6812	5.54	1896	5.76	0.07	0	0	0	34.5	1.3	64.2	1.3	0.5
3610	1563-2-1	Nedre H??alsvatnet	3610	1563-2-1	8.6585	62.4669	14.61	1235	10.16	0.52	0	0	0	2.1	11.1	86.8	3.6	0.5
3611	1563-3-6	Storvatnet	3611	1563-3-6	8.8201	62.5331	8.93	1134	30.04	1.1	0	0	0	5.4	11.8	82.8	12.3	3.26
3612	1566-1-9	Grytvatnet	3612	1566-1-9	9.0932	63.0624	1.51	1357	2.9	0.04	0	0	1.9	0	2.5	95.6	2.6	0.5
3613	1566-1-10	Damtj?rna	3613	1566-1-10	8.8874	63.0398	1	1735	4.13	0.07	84.1	0	3.2	0	11.1	1.6	7	0.5
3614	1566-2-16	Holmevatnet	3614	1566-2-16	9.009	63.0732	1.62	1653	2.71	0.2	0	0	2.9	1.2	11.8	84.1	12.3	0.5
3616	1569-1-8	Vasslivatnet	3616	1569-1-8	8.5855	63.2885	0.89	1695	1.82	0.04	75	0	1	0	4	20	4.5	0.5
3617	1569-2-4	?vikvatnet	3617	1569-2-4	8.4738	63.3385	1.33	1380	5.01	0.18	76.9	0	4.1	0	12.2	6.8	13.5	0.5
3618	1569-2-14	Rostolvatnet	3618	1569-2-14	8.6575	63.3051	0.89	1993	9.21	0.12	3.6	0	0	0	10.9	85.5	13.5	0.62
3619	1572-2-15	Linnv?vatnet	3619	1572-2-15	7.9535	63.1805	16.47	1446	14.06	0.84	67.2	0.5	4.1	0	4.4	23.8	5.1	0.5
3620	1612-3-12	Heimsvatnet	3620	1612-3-12	9.0464	63.4145	10.44	1501	19.32	1.01	65	1.9	6.6	0	9.4	17.1	9.7	1.24
3621	1613-1-18	Botntj?rna	3621	1613-1-18	9.3473	63.4256	0.8	1869	5.09	0.05	2.2	0	1.1	0	5.6	91.1	6.2	0.5
3622	1613-2-7	HOH 676	3622	1613-2-7	9.3791	63.416	1	2046	7.04	0.12	0	0	0.91	0	0	99.09	12	0.5
3623	1617-1-1	Langvatnet	3623	1617-1-1	9.0543	63.5885	4.15	1228	2.11	0.09	81.3	0	5.3	0	1.9	11.5	2.2	0.5
3624	1617-1-4	Husvatnet	3624	1617-1-4	8.9649	63.5048	1.64	1360	2.68	0.07	58	1.4	35	0	4.9	0.7	4.3	0.5
3625	1617-1-10	Ulvv?vatnet	3625	1617-1-10	9.0983	63.5872	0.63	1208	5.54	0.08	74	0	6	0	16	4	12.7	0.58
3626	1617-1-12	HOH 40	3626	1617-1-12	8.7787	63.6306	0.48	1257	4.03	0.05	14	6	8	0	10	62	10.3	0.5
3627	1617-2-2	Jevikvatnet	3627	1617-2-2	8.9738	63.6325	1	1246	7.35	0.17	1.7	3.3	0.8	0	14.2	80	17	1
3628	1617-2-6	HOH 66	3628	1617-2-6	8.6772	63.5517	3.43	1475	5.84	0.25	22.4	0	5.2	0	1.6	70.8	7.3	0.5
3629	1620-1-2	R?alsvatnet	3629	1620-1-2	8.7644	63.7386	0.88	1244	2.66	0.08	0	0	5.7	0	11.4	82.9	9.1	0.5
3630	1620-2-13	Tuvnesvatnet	3630	1620-2-13	8.6384	63.7274	7.98	1237	8.71	0.42	1.4	0.1	2.5	0	5.5	90.5	5.3	0.5
3632	1622-1-17	Holtvatnet	3632	1622-1-17	9.6208	63.5517	1.61	1508	3.04	0.04	13.5	0	3.1	0	2.5	80.9	2.5	0.5
3633	1622-2-5	Lauvvatnet	3633	1622-2-5	9.5082	63.5037	5.28	1620	10.04	0.18	61.2	0	1.4	0	3.6	33.8	3.4	0.5
3634	1624-1-23	S?rvikvatnet	3634	1624-1-23	9.8671	63.6252	1.75	1244	7.84	0.1	51.4	0	2.9	0	5.7	40	5.7	0.5
3635	1627-2-12	Ryvatnet	3635	1627-2-12	9.7366	63.7826	7.41	1175	10.99	0.68	55.3	0	5.1	0	10	29.6	9.2	0.86
3637	1630-2-14	Holmvatnet	3637	1630-2-14	10.347	64.0683	2.62	2283	4.88	0.14	0	0	11	0	5.7	83.3	5.3	0.5
3638	1630-2-20	Torsteinvatnet	3638	1630-2-20	10.4641	64.1239	4.68	2289	13.08	0.89	7.7	0	10.7	0	23.7	57.9	19	1.09
3639	1632-2-1	Storheitj?rnin	3639	1632-2-1	10.7043	64.136	3.11	2413	3.78	0.12	0	0	7.1	0	3.4	89.5	3.9	0.5
3640	1634-1-8	Sattja	3640	1634-1-8	9.2733	62.3994	0.64	790	2.3	0.07	0	0	0	0	9.2	90.8	10.9	0.5
3641	1634-1-14	HOH 950	3641	1634-1-14	9.5147	62.7367	0.48	910	3.09	0.06	40.4	0	4.3	0	12.8	42.5	12.5	0.5
3642	1634-1-20	Kamtj?rnin	3642	1634-1-20	8.9421	62.7	1.82	1989	2.13	0.08	0	0	0	0.5	4.2	95.3	4.4	0.5
3643	1634-3-2	Store Orkelsj?en	3643	1634-3-2	9.891	62.5011	14.4	703	9.9	1.85	0	0	6.8	0	15	78.2	12.9	1.81
3644	1634-3-5	?gardsvatnet	3644	1634-3-5	9.2113	62.666	86.02	1008	13.28	3.24	22.2	0	3.7	0.6	3.8	69.7	3.8	0.5
3645	1636-1-6	Litleholtvatnet	3645	1636-1-6	9.4666	63.0726	0.54	1311	3.39	0.07	33.3	0	13.3	0	11.7	41.7	13	0.5
3646	1636-1-15	Snipvatna	3646	1636-1-15	9.5295	62.9908	3.34	1182	3.73	0.04	0	0	0.9	0	1.2	97.9	1.2	0.5
3647	1638-1-16	Midtvatnet	3647	1638-1-16	9.3884	63.2663	2.24	1946	4.23	0.1	0	0	2.3	0	4.5	93.2	4.5	0.5
3648	1638-2-3	Husdalsvatnet	3648	1638-2-3	9.853	63.36	3.91	982	3.67	0.2	91	0	3.8	0	5.1	0.1	5.1	0.5
3649	1640-1-9	HOH 808	3649	1640-1-9	11.8339	62.3932	1.13	486	1.39	0.08	0	0	0	0	6.3	93.7	7.1	0.5
3650	1640-1-13	Monstj?rna	3650	1640-1-13	11.3821	62.6648	0.27	526	2.02	0.05	81.12	0	6.99	0	0	11.89	18.6	0.72
3651	1640-1-22	Heggr?sttj?rnane	3651	1640-1-22	12.0375	62.356	2.36	292	1.78	0.05	92.7	0	1.8	0	3.1	2.4	2.1	0.5
3652	1640-2-17	Store Fjellsj?en	3652	1640-2-17	11.2797	62.6989	5.1	677	7.44	0.92	6.1	0	1.2	0	13.9	78.8	18	1.98
3653	1640-2-19	Vedtj?rna	3653	1640-2-19	11.4928	62.6386	0.97	502	2.5	0.2	7.2	0	3.6	0	14.5	74.7	20.7	1.03
3654	1640-3-3	Djupsj?en	3654	1640-3-3	11.4893	62.599	115.28	447	12.32	4.37	54.5	3.9	6.1	0	3.7	31.8	3.8	1.04
3655	1640-3-4	Styggsj?ane	3655	1640-3-4	12.1682	62.3487	5.39	322	3.07	1.2	58.5	0	3.1	0	4.6	33.8	22.3	2.12
3657	1640-4-1	Aursunden	3657	1640-4-1	11.4623	62.6785	853.48	631	13.15	46.04	34.5	1.7	1.1	0	5.4	57.3	5.4	1.12
3658	1648-1-3	Brekkesetertj.	3658	1648-1-3	10.1438	63.0321	0.39	656	4.15	0.06	78.7	0	6.4	0	12.8	2.1	15.4	0.97
3659	1648-1-11	Vardetj?rna	3659	1648-1-11	10.0422	62.979	0.37	959	4.22	0.04	69	0	2.4	0	9.5	19.1	10.8	0.5
3660	1648-2-15	Langvatnet	3660	1648-2-15	10.0552	62.9261	2.01	593	4.94	0.16	1.2	0	1.6	0	6	91.2	7.9	0.66
3661	1653-2-10	Krokuttj?rna	3661	1653-2-10	10.0603	63.0287	3.09	835	6.62	0.22	63	0	6.1	0	6.7	24.2	7.1	0.56
3662	1653-3-10	Benna	3662	1653-3-10	10.2517	63.1941	25.35	651	30.71	5.73	65.3	2.1	1.4	0	23.6	7.6	22.6	10.66
3663	1657-3-9	Laugen	3663	1657-3-9	10.0489	63.2809	95.6	777	15.22	1.84	74.7	11.1	9.2	0	2.1	2.9	1.9	0.5
3664	1702-1-6	Gisk?tj?rna	3664	1702-1-6	11.8973	64.0342	4.41	1030	1.77	0.08	54.9	0	1.2	0	1.9	42	1.8	0.5
3665	1702-1-17	Sandtjern	3665	1702-1-17	11.5805	64.2204	0.61	1304	6.14	0.09	78.3	0	6.7	0	15	0	14.8	0.7
3666	1702-2-17	Jenshusvatnet	3666	1702-2-17	11.4396	64.1726	5.18	1141	6.58	0.19	67.3	0	24.5	0	3.9	4.3	3.7	0.5
3667	1703-1-5	Fjellsettj?rna	3667	1703-1-5	11.5653	64.3893	0.65	1362	7.4	0.08	64.4	0	0	0	17.8	17.8	12.3	0.67
3668	1703-2-1	Gravvatnet	3668	1703-2-1	11.7224	64.6019	3.63	1609	6.4	0.21	45.5	0	3	0	6.4	45.1	5.8	0.5
3670	1711-3-8	Fundsj?en	3670	1711-3-8	11.7873	63.4793	60.93	1111	18.61	7.99	12.4	0	15.7	0	14.8	57.1	13.1	2.2
3671	1711-4-2	Fjergen	3671	1711-4-2	11.9108	63.4334	148.91	1292	8.63	14.42	9.4	0	22.2	0	9.6	58.8	9.7	0.65
3672	1717-2-6	Liavatnet	3672	1717-2-6	10.7657	63.5925	8.42	721	8.81	0.34	74.8	18.5	2.5	0	4.2	0	4	0.5
3673	1718-1-8	?. Lj?svatn	3673	1718-1-8	10.4811	63.6738	1.45	1503	3.59	0.05	40	0	37.6	0	4.8	17.6	3.4	0.5
3674	1718-1-9	Svarttj?nn	3674	1718-1-9	10.7989	63.7349	0.9	1305	5.95	0.07	84.7	0	8.2	0	7.1	0	7.8	0.5
3675	1718-1-10	Storskartj?rna	3675	1718-1-10	10.7381	63.7162	0.3	1245	5.16	0.06	62.8	0	23.3	0	14	-0.1	19.8	0.82
3676	1718-1-15	Aunbyvatn	3676	1718-1-15	10.4164	63.6662	6.05	1567	4.99	0.08	24.2	0	24.2	0	1.3	50.3	1.3	0.5
3677	1718-1-16	Okstj?nn	3677	1718-1-16	10.7336	63.7307	0.3	1377	3.84	0.06	66.7	0	13.3	0	20	0	19.7	0.55
3678	1721-2-13	S?re Vassdalstj?rna	3678	1721-2-13	12.2941	63.7354	0.89	1070	7.7	0.18	0	0	0	0	20.5	79.5	20.2	1.45
3679	1721-3-15	Storbellingen	3679	1721-3-15	12.2787	63.6983	17.7	1096	9.44	1.86	12.4	0	37.7	0	10.1	39.8	10.5	0.9
3680	1723-2-5	R?svatnet	3680	1723-2-5	10.8466	63.8541	4.1	1296	10.2	0.56	65.1	0	2.4	0	14.8	17.7	13.6	1.07
3681	1724-2-22	Bogatj?rna	3681	1724-2-22	10.5711	63.854	0.56	1900	2.47	0.1	0	0	5.1	0	14.9	80	18	0.5
3682	1725-1-20	?vre Steintj?rna	3682	1725-1-20	11.1135	64.3057	0.36	1649	3.05	0.06	90.4	0	3.4	0	17.6	-11.4	16.7	0.5
3683	1725-2-18	R?dhammarvatnet	3683	1725-2-18	11.1411	64.3252	1.29	1670	8.56	0.17	89	0	0	0	0.6	10.4	13.2	0.67
3684	1725-2-21	S?erlangvatnet	3684	1725-2-21	11.0399	64.305	0.84	1597	3.74	0.15	27.7	0	41.5	0	17.1	13.7	17.8	0.5
3685	1736-1-22	Fiskl?ysa	3685	1736-1-22	12.4212	64.0553	0.26	1770	4.08	0.07	0	0	0	0	6.7	93.3	26.5	0.61
3686	1736-1-27	HOH 617	3686	1736-1-27	13.1609	64.1993	2.23	1487	2.16	0.07	0	0	0.2	0	0.6	99.2	3.1	0.5
3687	1736-2-3	HOH 619	3687	1736-2-3	13.2039	64.1867	0.2	1388	1.12	0.02	0	0	0	0	2.6	97.4	10.1	0.5
3688	1736-2-15	Hattj?rna	3688	1736-2-15	12.4606	64.0049	1.66	1922	6.4	0.16	0	0	0	0	7.2	92.8	9.6	0.5
3690	1736-5-1	Sn?avatnet	3690	1736-5-1	11.6355	64.0823	1434.83	884	45.02	121.58	45.4	5	3	0	8.3	38.3	8.5	4.32
3691	1738-1-19	Gr?nlitj?rna	3691	1738-1-19	13.845	64.3076	3.38	990	2.55	0.09	48.9	0	37.4	0	2.3	11.4	2.7	0.5
3692	1738-1-21	Storolatj?rnin	3692	1738-1-21	13.4476	64.4132	1.36	927	5.58	0.08	50.7	0	36.2	0	5.9	7.2	5.9	0.5
3693	1738-2-12	Koitj?rna	3693	1738-2-12	13.7008	64.3373	10.45	836	1.52	0.13	25.3	0	68.2	0	1.5	5	1.2	0.5
3694	1738-3-6	Store Strivatnet	3694	1738-3-6	13.9812	64.2416	20.49	1094	5.21	1.03	12.6	0	9.7	0	10.6	67.1	5	0.5
3695	1738-3-7	Djupvatnet	3695	1738-3-7	13.5622	64.4218	1	752	2.65	0.04	46	0	23.6	0	2.3	28.1	4	0.5
3696	1738-3-13	Langvatnet	3696	1738-3-13	13.7556	64.0726	29.42	847	17.03	2.85	32.2	0	15.4	0	9.4	43	9.7	1.95
3697	1738-4-1	Rengen	3697	1738-4-1	13.8974	64.1344	982.81	625	20.02	21.49	62.5	0.4	3.2	0	2.1	31.8	2.2	0.7
3698	1739-1-2	HOH 1069	3698	1739-1-2	14.0744	65.0487	0.49	1978	8.59	0.1	0	0	0	0	23.1	76.9	20.4	0.89
3699	1739-1-12	HOH 654	3699	1739-1-12	13.3594	64.875	0.16	1526	3.02	0.05	0	0	0	0	9.1	90.9	31	0.61
3700	1739-1-18	Laagkoenjuenientjonne	3700	1739-1-18	13.7408	64.8543	0.53	1447	2.1	0.05	74.1	0	18.5	0	6	1.4	9.4	0.5
3701	1739-1-28	Okstj?rna	3701	1739-1-28	13.5606	64.8459	0.48	963	4.68	0.07	0	0	0	0	18.6	81.4	14.5	0.71
3702	1739-2-4	HOH 886	3702	1739-2-4	14.029	64.9526	0.46	1339	2.76	0.02	0	0	0	0	9.8	90.2	4.4	0.5
3703	1739-2-14	M?renjaevrieh	3703	1739-2-14	13.8958	64.9685	1.55	1364	4.93	0.06	0	0	0.7	0	1.5	97.8	3.9	0.5
3704	1739-2-19	?vre Bl?urtj?rnin	3704	1739-2-19	13.1691	64.5375	1.34	1575	6.88	0.11	0	0	0	0	19.6	80.4	8.2	0.5
3705	1739-3-3	Vestre Rekaren	3705	1739-3-3	13.6456	65.0508	14.21	1401	8.2	2.77	3.3	0	2.9	0	16.9	76.9	19.5	1.14
3706	1739-5-1	Tunnsj?en	3706	1739-5-1	13.2165	64.6902	388.07	1041	86.34	100.18	38.6	0.5	4.3	0	25.8	30.8	25.8	21.41
3707	1740-2-9	Store Skorovatn	3707	1740-2-9	13.0568	64.6484	16.48	1561	8.95	0.03	2.9	0	1.2	0	2.8	93.1	0.2	0.5
3708	1740-2-10	Krokvatnet	3708	1740-2-10	13.0198	65.0544	5.34	2708	10.61	0.41	0	0	0	0	7.1	92.9	7.7	0.5
3709	1740-2-39	Gr?ndalsvatnet	3709	1740-2-39	12.9584	64.6209	30.1	1658	5.49	0.46	3.1	0	3	0	1.7	92.2	1.5	0.5
3710	1742-1-1	Liatj?rnin	3710	1742-1-1	12.2517	64.358	0.21	1530	3.57	0.07	0	0	0	0	49.7	50.3	32.7	0.76
3711	1742-1-7	HOH 824	3711	1742-1-7	12.9532	64.5197	0.61	2291	2.99	0.05	0	0	0	0	12	88	8.2	0.5
3712	1742-1-24	R?yrtj?rna	3712	1742-1-24	12.4561	64.5829	1.51	1284	4.38	0.05	0	0	28.7	0	4.1	67.2	3.3	0.5
3713	1748-3-5	Kvernvikvatnet	3713	1748-3-5	11.5245	64.7345	4.78	1366	24.64	1.31	34	0	1	0	26.2	38.8	27.4	4.95
3714	1749-1-25	Erlandvatnet	3714	1749-1-25	10.805	64.4529	0.19	1301	7.04	0.04	43.9	0	0	0	11.9	44.2	21.1	1.14
3715	1749-3-12	Mjosundvatnet	3715	1749-3-12	10.9739	64.5862	0.59	1257	8.73	0.11	1.3	0	2.16	0	0	96.54	18.8	1.31
3716	1751-1-4	Reinb?livatnet	3716	1751-1-4	12.2628	64.908	1.68	2193	9.17	0.09	54.4	0	1.3	0	4.9	39.4	5.4	0.5
3717	1751-1-13	S?ertj?rna	3717	1751-1-13	12.1158	64.9028	2.08	2304	2.81	0.08	31.4	0	0.9	0	3.6	64.1	3.8	0.5
3718	1751-1-23	Langvatn	3718	1751-1-23	11.9658	64.8705	0.82	2230	5.39	0.08	2.3	0	1.1	0	9.2	87.4	9.8	0.5
3719	1751-2-2	Sm?olmvatnet	3719	1751-2-2	11.6288	64.7265	0.33	1404	5.1	0.02	0	0	0	0	0	100	6	0.5
3720	1751-2-7	Vasslivatnet	3720	1751-2-7	11.7132	64.991	1.07	1651	8.74	0.21	47.4	0	12.8	0	11.2	28.6	19.7	1.04
3721	1804-3-17	S?rvatnet	3721	1804-3-17	14.7602	67.4825	15.15	1186	21.44	1.85	35.67	0	2.33	0	0	62	12.2	2.21
3722	1805-1-7	Vestfjordvatnan	3722	1805-1-7	17.7221	68.4124	4.18	1467	1.01	0.07	0	0	1.4	0	1.8	96.8	1.7	0.5
3723	1805-1-14	S?sterbekkvatnan	3723	1805-1-14	17.9478	68.4363	3.88	1396	3.97	0.05	1.1	0	0.1	0	0.7	98.1	1.3	0.5
3724	1805-3-4	Storvatnet	3724	1805-3-4	17.4277	68.3688	56.98	1234	21.04	2.61	24.8	0	0.4	2.1	4.6	68.1	4.6	0.78
3725	1811-1-22	HOH 674	3725	1811-1-22	12.8974	65.0588	1.69	2732	7.71	0.08	0	0	0	0	4.6	95.4	4.7	0.5
3726	1811-3-6	Myrmarkvatnet	3726	1811-3-6	12.4137	65.2831	7.8	1783	37.11	1.51	55.6	0	0.1	0	18.9	25.4	19.4	4.03
3727	1812-1-12	Gjerdevatnet	3727	1812-1-12	12.2211	65.3031	2.11	1646	0.93	0.06	70	0	9.1	0	2.7	18.2	2.8	0.5
3728	1813-2-5	Tilremsvatnet	3728	1813-2-5	12.2647	65.5134	3.38	1386	4.3	0.15	48.4	0	0	0	4.7	46.9	4.4	0.5
3729	1820-1-20	Helknavatnet	3729	1820-1-20	12.526	65.9262	0.95	1778	5.64	0.05	0	0	0	0	5.2	94.8	5.3	0.5
3730	1824-1-3	HOH 864	3730	1824-1-3	13.3588	66.1143	0.74	3417	8.77	0.06	0	0	0	0	11.2	88.8	8.1	0.5
3731	1824-1-6	HOH 821	3731	1824-1-6	13.4073	66.1233	0.28	3167	5.02	0.04	0	0	0	0	23.3	76.7	14.1	0.5
3732	1824-1-17	Kottj?rna	3732	1824-1-17	13.7315	65.8327	0.79	2093	5.84	0.07	25.7	0	0	0	13.9	60.4	8.9	0.5
3733	1824-2-25	HOH 444	3733	1824-2-25	12.9559	65.6909	3.82	2701	5.1	0.14	0	0	0.3	0	3.8	95.9	3.7	0.5
3734	1825-1-5	S?rtj?rna	3734	1825-1-5	13.5406	65.3541	0.99	1707	2.72	0.06	0	0	0	0	5.2	94.8	6.1	0.5
3735	1825-1-9	Sivtj?rna	3735	1825-1-9	13.2396	65.1754	3.84	1766	1.35	0.02	1.2	0	3.6	0	1.4	93.8	0.5	0.5
3736	1825-2-23	Litle Holmvatnet	3736	1825-2-23	13.2436	65.2528	1.85	1769	5.66	0.15	13.98	0	9.2	0	0	76.82	8.1	0.5
3737	1825-4-4	Store Majavatnet	3737	1825-4-4	13.3108	65.1942	85.7	1376	23.61	16	48.2	0	6	0	19	26.8	18.7	3.2
3738	1826-1-8	HOH 785	3738	1826-1-8	14.5198	65.6614	1.39	1809	2.32	0.07	0	0	0	0	8.6	91.4	5	0.5
3739	1826-1-10	HOH 822	3739	1826-1-10	13.8609	65.1715	0.38	1946	6.05	0.05	0	0	0	0	14.2	85.8	13.1	0.5
3740	1826-3-24	Fisklausvatnet	3740	1826-3-24	14.2985	65.3962	19.67	1062	9.11	1.01	0	0	0.6	0	5.3	94.1	5.1	0.5
3741	1826-4-3	Unkervatnet	3741	1826-4-3	14.1378	65.5139	513.12	815	27.27	14.01	2.2	0	0.1	0	1.8	95.9	2.7	0.91
3742	1826-5-1	R?ssvatnet	3742	1826-5-1	13.7938	65.8579	1505.47	1816	57.79	218.61	5.3	0.5	1.2	0	17.4	75.6	14.5	4.62
3743	1833-1-13	HOH 752	3743	1833-1-13	15.0991	66.3677	1.54	1346	1.66	0.09	0	0	1.6	0	1.9	96.5	5.9	0.5
3744	1833-1-15	Steinbekktj?rna	3744	1833-1-15	14.3742	66.3258	3.51	1251	4.44	0.05	91.2	0	2.1	0	1.5	5.2	1.4	0.5
3745	1833-1-16	HOH 695	3745	1833-1-16	13.811	66.5401	3.76	3773	4.41	0.05	0	0	0	88.1	1.5	10.4	1.3	0.5
3746	1833-1-19	HOH 1034	3746	1833-1-19	15.0935	66.5143	0.65	1362	2.26	0.05	0	0	0	0	7.7	92.3	7.7	0.5
3747	1833-3-1	Store Blerekvatnet	3747	1833-3-1	15.0907	66.3459	74.19	1397	3.24	2.61	0	0	0.8	1.6	3.4	94.2	3.5	0.5
3748	1836-1-21	HOH 662	3748	1836-1-21	13.6874	66.6621	1.01	3436	19.29	0.1	0	0	0	71.1	5.5	23.4	9.9	0.56
3749	1836-2-14	Storevatnet	3749	1836-2-14	13.2212	66.6544	1.58	1825	10.37	0.04	54.2	0	6	0	8.4	31.4	2.5	0.5
3750	1836-3-2	Gjervalvatnet	3750	1836-3-2	13.4666	66.4791	33.37	3156	34.43	1.39	7.2	0	0	0	1.4	91.4	4.2	0.5
3751	1837-3-3	Spilderdalsvatnet	3751	1837-3-3	13.8273	66.8715	18.71	2571	25.43	1.2	9.6	0	0.1	83.2	6.9	0.2	6.4	0.63
3752	1840-1-1	HOH 757	3752	1840-1-1	15.8169	67.0584	4.41	1431	4.12	0.05	0	0	0.5	0	1.3	98.2	1.1	0.5
3753	1840-1-4	HOH 725	3753	1840-1-4	15.6445	67.0521	0.88	1549	2.38	0.04	0	0	0	0	5	95	4.5	0.5
3754	1840-3-7	Solv?vatnet	3754	1840-3-7	15.5104	66.8464	13.43	1288	16.88	1.79	0	0	0.4	0.1	13.2	86.3	13.3	1.75
3755	1840-3-9	Store Rosna	3755	1840-3-9	15.8308	66.9956	59.04	1019	7.49	3.3	0	0	0	0	5.2	94.8	5.6	0.5
3756	1841-1-18	HOH 938	3756	1841-1-18	16.2751	67.054	1.8	1377	5.48	0.09	0	0	0	0	5.1	94.9	5	0.5
3757	1842-2-6	HOH 162	3757	1842-2-6	14.9825	67.0841	144.66	1113	7.44	0.28	62.3	0	2.1	0	0.2	35.4	0.2	0.5
3758	1842-2-7	Storoksvatnet	3758	1842-2-7	15.0422	66.9456	3.04	1117	15.17	0.56	8.4	0	1.3	0	18.8	71.5	18.4	2.5
3759	1842-3-14	HOH 472	3759	1842-3-14	14.8309	67.1207	8.54	1571	11.88	1.31	4.1	0	0.1	0	16	79.8	15.3	1.16
3760	1845-2-2	Hurrejavrrazat	3760	1845-2-2	16.3429	67.5493	12.17	1835	6.17	0.85	0	0	0	4.3	7.4	88.3	7	0.5
3761	1845-2-21	HOH 903	3761	1845-2-21	16.0505	67.4319	2.22	1875	10.32	0.11	0	0	0	22.7	4.3	73	5	0.5
3762	1848-2-4	Synstelvvatn	3762	1848-2-4	14.8959	67.6945	1.36	1661	11.38	0.2	0	0	0	0	14.8	85.2	14.7	1.01
3763	1848-2-10	HOH 281	3763	1848-2-10	15.561	67.8126	1.97	2153	5.54	0.1	0	0	0	0	5.3	94.7	5.1	0.5
3764	1848-2-15	Breiddalsvatnan	3764	1848-2-15	15.258	67.8671	2.19	2040	18.67	0.15	31	0	0	0	7.1	61.9	6.8	0.63
3765	1849-2-3	Lilandsvatn	3765	1849-2-3	15.5159	68.0713	5.25	1319	2.34	0.5	78.8	0	4	0	10	7.2	9.5	0.5
3766	1849-2-18	HOH 760	3766	1849-2-18	16.3403	67.7208	8.93	2231	6.09	0.37	0	0	0	22	4.1	73.9	4.1	0.5
3767	1849-3-18	Sandnesvatnet	3767	1849-3-18	15.9259	67.8615	171.15	1562	28.37	5.16	37.5	0	1.63	0	0	60.87	3	0.55
3768	1850-2-12	HOH 880	3768	1850-2-12	16.9543	67.9983	5.69	1923	4.39	0.22	0	0	0	0	4.2	95.8	3.9	0.5
3769	1850-2-19	Storvatnet	3769	1850-2-19	16.5618	67.9675	7.48	1574	26.77	0.79	5.9	0	0	0	10.4	83.7	10.6	1.8
3770	1850-3-11	Hievstenjavri	3770	1850-3-11	16.5413	67.7692	18.28	1176	13.1	1.66	0	0	0	0.2	9.1	90.7	9.1	1.01
3771	1853-3-13	Lavangsvatn	3771	1853-3-13	16.6573	68.4858	76.87	1316	7.92	1.53	87.7	0	2	0	2.3	8	2	0.5
3772	1854-2-16	Storp?vatnet	3772	1854-2-16	16.5855	68.3636	2.43	1299	3.65	0.02	83.6	0	3.2	0	9.6	3.6	0.8	0.5
3773	1866-1-2	Ulv?yvatn	3773	1866-1-2	15.0287	68.355	0.3	1869	4.07	0.04	60	0	10	0	20	10	13.5	0.5
3774	1866-1-11	Austpollvatnan	3774	1866-1-11	14.9064	68.3864	5.58	2058	12.25	0.06	2.8	0	0	1.5	1.1	94.6	1.1	0.5
3775	1870-2-1	Langvatnet	3775	1870-2-1	15.0498	68.6644	7.04	1896	27.6	0.76	36.2	0	0.1	0	11	52.7	10.8	1.57
3776	1870-2-20	Kjerringnesdalsvatn	3776	1870-2-20	15.5344	68.6619	27.22	1648	4.45	0.34	46.7	0	3.6	0	2	47.7	1.2	0.5
3777	1871-2-24	Rundvatn	3777	1871-2-24	15.8031	68.8875	1.52	1597	22.57	0.19	2.1	0	0	0	13.1	84.8	12.5	1.77
3778	1871-3-22	Storvatnet	3778	1871-3-22	15.9551	69.266	10.86	1448	14.62	1.73	6.2	0	30.8	0	14.3	48.7	15.9	1.61
3779	05.02.1901	Botnvatn	3779	05.02.1901	16.4013	68.831	2.01	1149	11.13	0.16	84	0	0.5	0	8	7.5	8	0.77
3780	11.02.1902	Storvatnet	3780	11.02.1902	18.5778	69.7788	2.18	1582	22.17	0.41	27.3	0	0.5	0	18.6	53.6	18.8	2.63
3781	15.01.1917	Juliusvatnet	3781	15.01.1917	17.3329	68.8519	1.06	1392	10.35	0.05	0	0	0	0	5	95	4.7	0.5
3782	04.03.1917	Skipsvatnet	3782	04.03.1917	16.9713	68.7775	0.98	1152	2.72	0.03	39.9	0	5.5	0	21.2	33.4	3.1	0.5
3783	14.01.1922	HOH 504	3783	14.01.1922	19.7861	68.4019	2.96	546	1.53	0.06	48.2	0	0.4	0	2.4	49	2	0.5
3784	10.02.1922	Dalbergvatnet	3784	10.02.1922	18.6087	68.7074	0.39	1150	5.21	0.1	0	0	0	0	33.3	66.7	25.4	1.15
3785	02.01.1924	T?mmertj?rnet	3785	02.01.1924	20.0788	69.011	3.45	1280	2.2	0.02	89.4	0	1.3	0	5.6	3.7	0.6	0.5
3786	04.01.1924	HOH 1044	3786	04.01.1924	19.8497	68.9039	0.5	945	3.45	0.07	0	0	0	0	15.2	84.8	14.1	0.52
3787	07.01.1924	Fiskvatn	3787	07.01.1924	18.6097	69.1985	2.96	902	3.57	0.08	90	0	5.9	0	2.8	1.3	2.7	0.5
3788	12.01.1924	HOH 770	3788	12.01.1924	20.0278	68.8928	4.52	972	4.18	0.08	0	0	0	0	2	98	1.8	0.5
3789	04.02.1924	S?ervatnet	3789	04.02.1924	18.9558	68.8171	7.1	1274	5.64	0.17	0	0	0	14.6	2.2	83.2	2.4	0.5
3790	06.02.1924	Fonnskardvatnet	3790	06.02.1924	18.7235	68.8853	3.6	1472	18.4	0.39	0	0	0	9.8	9.5	80.7	10.8	1.35
3791	10.01.1926	Femvatnan	3791	10.01.1926	17.8293	69.0942	0.27	1436	7.65	0.04	0	0	0	0	10	90	14.8	0.79
3792	01.03.1927	Kapervatnet	3792	01.03.1927	17.4285	69.2407	37.9	1651	9.86	1.35	3.9	0	0.1	0.3	3.6	92.1	3.6	0.5
3793	02.03.1927	Storvatnet	3793	02.03.1927	17.6851	69.1883	8.2	1196	8.03	2.3	71	0	1.5	0	26.4	1.1	28.1	1.88
3794	01.04.1931	Finnfjordvatnet	3794	01.04.1931	18.1637	69.2486	87.29	1371	17.56	10.25	70.5	0	5.8	0	12	11.7	11.7	1.5
3795	03.03.1933	Sagelvvatnet	3795	03.03.1933	19.1225	69.2117	74.92	736	23.91	5.07	61.9	0	1.3	0	8.5	28.3	6.8	2.2
3796	01.01.1936	HOH 11	3796	01.01.1936	19.9022	70.18	0.17	1223	1.09	0.06	0	0	0	0	24	76	36.1	0.5
3797	08.01.1938	Kalddalsvatnet	3797	08.01.1938	20.2662	69.8992	2.3	1702	10.05	0.08	0	0	0	4.6	1.1	94.3	3.5	0.5
3798	03.01.1939	HOH 1045	3798	03.01.1939	20.8868	69.2416	0.45	655	1.95	0.07	0	0	0	0	15.6	84.4	15.5	0.5
3799	09.01.1939	Mallajavrrit	3799	09.01.1939	20.3647	69.0978	0.45	917	2.56	0.05	0	0	2.6	0	5.2	92.2	11	0.5
3800	13.01.1939	HOH 905	3800	13.01.1939	20.5706	69.1409	1.17	649	3.87	0.06	0	0	0	0	6.9	93.1	5.1	0.5
3801	02.02.1940	Vuoddojavrit	3801	02.02.1940	21.1547	69.5011	1.86	822	1.4	0.12	0	0	0	0	6	94	6.4	0.5
3802	06.03.1940	Goddejavri	3802	06.03.1940	20.9642	69.3371	42.66	778	4.98	1.64	0	0	0	0	3.6	96.4	3.8	0.5
3803	01.02.1942	Doaresjavri	3803	01.02.1942	21.1639	69.4827	1.25	756	5.27	0.14	0	0	0	0	11.7	88.3	11.2	0.78
3804	08.02.1942	Gahkkorjavri	3804	08.02.1942	21.6524	69.3424	2.4	516	3.74	0.31	0	0	0.4	0	13.9	85.7	12.9	0.94
3805	11.01.1943	HOH 551	3805	11.01.1943	22.2493	69.9302	0.89	1124	3.48	0.05	0	0	0	0	5	95	5.6	0.5
3806	12.02.1943	Madenj?nejavri	3806	12.02.1943	22.5237	69.7281	4.18	937	2.72	0.25	0	0	2.6	0	6.4	91	6	0.5
3807	02.03.2003	Oardujavri	3807	02.03.2003	29.2629	70.4878	53.29	714	4.24	2.28	0.3	0	2.8	0	4.8	92.1	4.3	0.5
3808	08.01.2004	L?revatnet	3808	08.01.2004	23.1108	70.6827	0.6	1312	5.93	0.04	0	0	1.7	0	6.7	91.6	6.7	0.5
3809	06.01.2011	Amasjavri	3809	06.01.2011	22.7998	68.8807	5.39	371	3.86	0.09	75	0	0	0	25	0	1.7	0.5
3810	09.01.2011	Njargajavri	3810	09.01.2011	24.0497	68.8976	2.1	311	0.7	0.08	25	0	57	0	4	14	3.8	0.5
3811	12.01.2011	HOH 407	3811	12.01.2011	24.105	68.8914	0.25	357	2.44	0.07	77.1	0	0	0	20	2.9	27.9	1.91
3812	16.01.2011	HOH 537	3812	16.01.2011	23.3781	69.4916	0.77	475	0.96	0.06	0	0	35.7	0	2.4	61.9	7.8	0.5
3813	2011-1-34	HOH 366	3813	2011-1-34	23.5917	69.3786	0.51	383	1.05	0.07	43.4	0	26.4	0	11.3	18.9	13.7	0.5
3814	2011-1-41	Madiijavrit	3814	2011-1-41	23.4928	68.7672	0.4	337	0.86	0.1	69.1	0	18.2	0	10.9	1.8	24.8	0.63
3815	2011-1-51	HOH 376	3815	2011-1-51	23.5122	69.2879	1.72	394	1.08	0.1	78.7	0	9.7	0	6.5	5.1	5.8	0.5
3816	2011-1-58	HOH 370	3816	2011-1-58	24.6243	68.9542	0.77	283	0.31	0.08	0	0	30	0	8.9	61.1	10.4	0.5
3817	2011-1-66	HOH 381	3817	2011-1-66	22.8677	69.1129	2.07	375	3.16	0.09	57.8	0	41	0	1.2	0	4.3	0.5
3818	2011-1-67	HOH 358	3818	2011-1-67	23.5835	69.1735	0.27	341	1.53	0.05	67.3	0	18.2	0	9.1	5.4	18.5	0.83
3819	04.02.2011	Cuorvonc?kavuoljavri	3819	04.02.2011	23.706	69.6402	0.69	413	4.16	0.11	0	0	3.5	0	19.3	77.2	16	1.61
3820	05.02.2011	Gaggesjavri	3820	05.02.2011	24.1371	69.2372	6.63	430	1.57	0.94	0	0	5.2	0	14	80.8	14.2	0.52
3821	12.02.2011	Cuolbmajavri	3821	12.02.2011	22.7672	69.3354	7.06	443	12.04	0.79	0	0	0.1	0	12.7	87.2	11.2	3.04
3822	13.02.2011	HOH 385	3822	13.02.2011	24.3497	68.9227	0.5	349	1.29	0.11	64.4	0	11.1	0	24.4	0.1	22	0.82
3823	14.02.2011	HOH 446	3823	14.02.2011	23.5894	68.965	0.27	325	1.02	0.1	0	0	18.5	0	37	44.5	36.5	1.15
3824	15.02.2011	HOH 356	3824	15.02.2011	24.9484	68.8614	2.75	365	2.7	0.31	76.6	0	9.4	0	13.2	0.8	11.3	0.83
3825	18.02.2011	HOH 424	3825	18.02.2011	24.6207	68.7804	1.11	363	1.94	0.33	65.6	0	6.4	0	26.4	1.6	29.9	1.6
3826	20.02.2011	Vuovdevuonjaljavri	3826	20.02.2011	23.6392	69.6205	2.25	406	4.56	0.18	2.3	0	5.9	0	8.2	83.6	8	0.9
3827	2011-2-31	Vuovdeluobbal	3827	2011-2-31	23.6654	69.2208	5.57	351	2.84	0.13	48.1	0	10.5	0	3	38.4	2.3	0.5
3828	2011-2-43	HOH 376	3828	2011-2-43	24.3655	68.9891	7.55	329	1.32	0.34	44.5	0	14.1	0	9.6	31.8	4.5	0.5
3829	2011-2-44	Rebmesluobbalat	3829	2011-2-44	22.9747	68.7298	2.3	368	0.29	0.14	6.4	0	51.3	0	4.5	37.8	6.1	0.5
3830	05.03.2011	Saiva	3830	05.03.2011	23.3442	69.3999	27.93	409	4.4	1.67	15.6	0	17	0	5.6	61.8	6	0.64
3831	11.03.2011	Mollejusg?ejavri	3831	11.03.2011	22.3717	69.4237	16.57	561	6.17	1.11	0	0	3	0	6.4	90.6	6.7	0.74
3832	13.03.2011	J?gajavri	3832	13.03.2011	22.8644	69.2292	21.97	420	8.9	1.01	25.5	0	22.8	0	4.6	47.1	4.6	0.97
3833	10.01.2011	HOH 390	3833	10.01.2011	24.8541	68.6465	6.29	444	2.56	0.07	46	0	6.3	0	1	46.7	1.1	0.5
3834	26.01.2012	HOH 542	3834	26.01.2012	22.4379	69.9679	0.32	1073	1.68	0.07	0	0	0	0	38.9	61.1	22	0.5
3835	2012-1-33	HOH 745	3835	2012-1-33	22.6027	69.9724	0.11	923	2.66	0.04	0	0	0	0	20	80	37.7	1.09
3836	2012-1-38	T?rrelvvatna	3836	2012-1-38	22.6475	69.8146	1.96	746	3.01	0.07	0	0	0	0	3.7	96.3	3.6	0.5
3837	2012-1-53	HOH 230	3837	2012-1-53	23.4365	69.8597	0.45	404	1.93	0.09	67.7	0	18.5	0	13.8	0	20	0.96
3838	2012-1-54	HOH 459	3838	2012-1-54	23.9874	69.9282	0.57	636	2.45	0.04	0	0	1.8	0	7.3	90.9	7	0.5
3839	2012-1-56	HOH 392	3839	2012-1-56	22.842	70.0276	0.59	784	3.1	0.05	0	0	0	0	7.7	92.3	8.4	0.5
3840	2012-1-62	HOH 359	3840	2012-1-62	23.7626	69.8332	2.93	481	1.46	0.05	39	0	3.9	0	1.8	55.3	1.7	0.5
3841	01.02.2012	HOH 479	3841	01.02.2012	24.1141	69.815	3.16	515	3.35	0.17	0	0	2.9	0	5.5	91.6	5.4	0.5
3842	26.02.2012	Ninnasjuhanajavri	3842	26.02.2012	23.907	69.75	4.56	502	5.79	0.15	8.5	0	3	0	3.2	85.3	3.3	0.5
3843	2012-2-42	HOH 719	3843	2012-2-42	22.6037	69.8579	0.74	1136	2.95	0.13	0	0	0	0	11.8	88.2	17.6	0.5
3844	2012-2-46	?vre S?relvvatnet	3844	2012-2-46	23.799	70.0079	12.02	807	2.91	0.2	0	0	3.1	0	1.7	95.2	1.7	0.5
3845	2014-1-59	HOH 665	3845	2014-1-59	22.2536	70.083	0.35	1016	5.4	0.05	0	0	0	0	6.7	93.3	14.4	0.76
3846	2014-2-29	Ternevatnet	3846	2014-2-29	22.3846	70.0955	5.88	1045	9.35	0.44	0	0	0	0	8	92	7.5	0.67
3847	10.02.2015	Langkeilvatn	3847	10.02.2015	22.5434	70.6691	0.67	1642	4.98	0.11	0	0	1.3	0	13.8	84.9	16.4	0.5
3848	03.01.2017	HOH 610	3848	03.01.2017	24.106	70.389	0.26	944	8.08	0.09	0	0	0	0	25.7	74.3	34.5	2.95
3849	2017-1-55	HOH 243	3849	2017-1-55	24.3265	70.6214	0.32	1333	6.17	0.06	0	0	0	0	13.3	86.7	18.5	0.86
3850	2017-2-45	Gukkesluobbal	3850	2017-2-45	23.7937	70.2615	3.38	868	4.29	0.11	0	0	1.4	0	1.3	97.3	3.3	0.5
3851	2018-1-36	HOH 165	3851	2018-1-36	24.6422	70.9119	3.61	1566	7.26	0.06	0	0	0	0	1.6	98.4	1.7	0.5
3852	2018-1-39	HOH 370	3852	2018-1-39	24.8166	70.6868	0.93	1319	3.48	0.05	0	0	0	0	5	95	5.4	0.5
3853	2018-1-46	HOH 497	3853	2018-1-46	24.9228	70.6699	0.42	1493	5.83	0.05	0	0	0	0	11.1	88.9	11.9	0.5
3854	2018-1-49	HOH 340	3854	2018-1-49	25.1521	70.8034	0.29	1307	3.22	0.07	0	0	0	0	26.1	73.9	24.1	0.59
3855	2018-1-72	HOH 128	3855	2018-1-72	24.9986	70.8638	0.26	1425	3.84	0.04	0	0	0	0	22.2	77.8	15.7	0.5
3856	22.02.2018	Lamvatnet	3856	22.02.2018	24.463	70.8112	2.82	1374	11.23	0.17	0	0	0	0	6.1	93.9	6	0.5
3857	2018-2-37	Jiegnajavrit	3857	2018-2-37	25.4324	70.8962	2.29	885	10.44	0.19	0	0	0	0	20.4	79.6	8.3	0.98
3858	06.03.2018	M?kejavri	3858	06.03.2018	25.1569	70.7646	5.54	1441	12.41	1.05	0	0	0.2	0	18.5	81.3	19	1.63
3859	05.01.2020	HOH 582	3859	05.01.2020	25.5487	70.0727	0.73	740	2.74	0.1	0	0	1.4	0	10	88.6	13.6	0.5
3860	20.01.2020	Ucca Lakcajavrit	3860	20.01.2020	25.6836	70.399	0.18	646	1.44	0.04	0	0	0	0	30.8	69.2	21.8	0.5
3861	2020-1-50	Rambij?vi	3861	2020-1-50	25.5453	70.3557	1.71	628	3.13	0.07	88	0	0.6	0	4	7.4	4.1	0.5
3862	2020-1-70	HOH 316	3862	2020-1-70	25.5425	69.8169	0.35	470	0.42	0.06	47	0	40	0	8	5	17	0.5
3863	2020-1-71	Raktoailuobbalat	3863	2020-1-71	24.5966	70.3416	3.58	593	3.35	0.09	0	0	2.3	0	2.9	94.8	2.5	0.5
3864	11.02.2020	B?dnejavri	3864	11.02.2020	24.4709	69.8619	0.57	648	2.8	0.11	0	0	0	0	19	81	19.3	0.83
3865	2020-2-32	Coalbmejavri	3865	2020-2-32	24.9896	69.9912	13.1	489	10.44	0.16	16.9	0	0.3	0	1.4	81.4	1.2	0.5
3866	2020-2-41	Luomujavrit	3866	2020-2-41	25.0388	70.6302	3.41	1368	10.15	0.21	0	0	0	0	6	94	6.2	0.5
3867	2020-2-47	Ravdujavri	3867	2020-2-47	25.8377	70.3366	1.08	762	2.87	0.11	71	0	4	0	11	14	10.2	0.5
3868	01.03.2020	L?tujavri	3868	01.03.2020	24.3421	70.175	17.03	665	4.66	2.84	0	0	7.8	0	18.4	73.8	16.7	1.17
3869	02.01.2021	HOH 450	3869	02.01.2021	24.6528	69.6473	71.84	461		0.08	0	0	49.6	0	1.7	48.7	0.1	0.5
3870	17.01.2021	Hannoailaddut	3870	17.01.2021	24.9836	69.1408	1.72	386	0.34	0.07	2.3	0	6.3	0	4	87.4	4.1	0.5
3871	24.01.2021	HOH 310	3871	24.01.2021	24.2912	69.4204	3.13	321	1.5	0.06	77.3	0	13.3	0	2	7.4	1.9	0.5
3872	2021-1-35	HOH 415	3872	2021-1-35	24.2617	69.727	0.5	494	0.4	0.05	0	0	0	0	9.1	90.9	10.1	0.5
3873	2021-1-64	HOH 382	3873	2021-1-64	24.7742	69.4732	4.05	382	1.91	0.08	34.3	0	2.3	0	2.3	61.1	2	0.5
3874	2021-1-65	HOH 361	3874	2021-1-65	25.8983	69.7496	2.71	458	0.25	0.04	5.2	0	17.4	0	1.7	75.7	1.5	0.5
3875	08.02.2021	Iddjavarjavri	3875	08.02.2021	25.1856	69.6354	18.62	396	1.28	0.14	82.8	0	4.5	0	1.1	11.6	0.8	0.5
3876	21.02.2021	D?gej?javrit	3876	21.02.2021	24.7375	69.6144	2.52	458	1.49	0.13	0	0	0.5	0	6.2	93.3	5.2	0.5
3877	2021-2-40	Nieidaidjavrit	3877	2021-2-40	25.227	69.5766	2.61	404	3.6	0.33	66.7	0	1.7	0	27.5	4.1	12.7	1.13
3878	12.03.2021	Mailejavri	3878	12.03.2021	25.0471	69.5632	79.12	399	5.84	2.35	10.9	0	1.1	0	3	85	3	0.5
3879	02.04.2021	Iddjajavr	3879	02.04.2021	25.3638	69.6041	85.39	376	7.69	10.28	78.8	0	2.4	0	12.3	6.5	12	2.46
3883	23.01.2022	Liinajavri	3883	23.01.2022	26.4074	70.4304	2.01	642	3.02	0.07	0	0	0	0	3.2	96.8	3.5	0.5
3884	25.01.2022	HOH 417	3884	25.01.2022	26.1522	70.5214	0.24	953	0.8	0.05	0	0	0	0	29.4	70.6	20.9	0.5
3885	28.01.2022	HOH 425	3885	28.01.2022	26.3718	70.4898	1.18	850	1.92	0.05	0	0	0	0	4.2	95.8	4.2	0.5
3886	2022-1-43	HOH 210	3886	2022-1-43	27.6341	71.0151	1.36	765	4.07	0.08	0	0	0	0	5.5	94.5	5.9	0.5
3887	2022-1-69	HOH 223	3887	2022-1-69	26.7839	70.2851	0.94	657	4.72	0.04	0	0	1	0	4.1	94.9	4.2	0.5
3888	06.02.2022	HOH 306	3888	06.02.2022	27.5271	71.0634	0.97	732	2.98	0.17	0	0	16.5	0	12.8	70.7	17.5	0.71
3889	18.01.2023	Nerdalsvatnet	3889	18.01.2023	27.3796	70.5742	2.57	893	3.85	0.07	22.6	0	0.4	0	3	74	2.7	0.5
3891	02.02.2023	Holmevatnet	3891	02.02.2023	28.2213	71.0575	1.4	778	3.06	0.14	0	0	1.5	0	10.6	87.9	10	0.5
3892	19.02.2023	HOH 257	3892	19.02.2023	27.8184	70.9039	1.86	953	1.7	0.11	0	0	3	0	5.5	91.5	5.9	0.5
3893	23.02.2023	Middagsvatna	3893	23.02.2023	28.0745	71.0267	0.58	933	1.76	0.03	0	0	1.6	0	1.8	96.6	5.1	0.5
3894	01.01.2025	Gistuladdut	3894	01.01.2025	27.6699	70.3399	0.76	716	3.61	0.05	0	0	0	0	5.6	94.4	6.6	0.5
3895	11.01.2025	HOH 368	3895	11.01.2025	27.763	70.4058	0.17	743	3.23	0.06	0	0	0	0	25	75	35.8	1.56
3896	15.01.2025	HOH 185	3896	15.01.2025	28.3877	70.4373	0.62	528	2.37	0.04	67.5	0	3.6	0	4.8	24.1	6.5	0.5
3897	2025-1-47	Hannujavrit	3897	2025-1-47	27.9134	70.3166	1.25	517	2.76	0.05	27.8	0	27.8	0	5.6	38.8	4	0.5
3898	2025-1-52	HOH 299	3898	2025-1-52	27.0578	69.9974	1.83	481	1.75	0.05	0	0	2.9	0	2.9	94.2	2.7	0.5
3899	09.02.2025	Sammutjavri	3899	09.02.2025	26.8393	69.9891	0.93	433	6.08	0.12	63.2	0	1.6	0	9.6	25.6	12.9	1.81
3900	09.03.2025	Nissujavri	3900	09.03.2025	27.8192	70.4134	14.3	675	16.81	2.51	0	0	0.3	0	17.6	82.1	17.5	4.37
